~VERSION INFORMATION
 VERS.                          2.0   : CWLS LOG ASCII STANDARD - VERSION 2.0
 WRAP.                          NO    : ONE LINE PER DEPTH STEP
#
~Well Information Section
#MNEM     .UNIT     DATA                DESCRIPTION
#-----    -----     --------            --------------
 STRT     .F        2155.0000           : START DEPTH
 STOP     .F        7672.0000           : END DEPTH
 STEP     .F        0.0000              : INCREMENT DEPTH
 NULL     .         -999.2500           : NULL VALUE
 COMP     .                              :
 WELL     .         WELL-2              : WELL NAME
 EKB      .F        73.0000             : KELLY BUSHING ELEVATION
 EGL      .F        0.0000              : GROUND LEVEL ELEVATION
 EPD      .F        0.0000              : PERMANENT DATUM ELEVATION
 FLD      .                              :
 LOC      . X = 246467.5900 Y = 8349201.3500: WELL LOCATION
 PROV     .                              :
 SRVC     .                              :
 PROV     .                              :
 DATE     .                              :
 API      .                              :
#
~Curve Information Section
#MNEM     .UNIT               Curve #DESCRIPTION
#-----    -----               ----   --------------
 DEPTH    .F                  : 1     Name = Domain Curve - Type = DEPTH
 RHOB     .g/cc               : 2     Name = Density - Type = Density
 GR       .API                : 3     Name = Gamma Ray - Type = Gamma Ray
 NPHI_LS  .fraction           : 4     Name = NPHI - Type = Porosity
 DT       .us/ft              : 5     Name = P-wave - Type = P-wave
~A (ASCII LOG DATA)
# ...
 2529.5000          2.0371         39.1562          0.4380        131.8750
 2530.0000          2.0703         40.9062          0.4346        132.0000
 2530.5000          2.1660         38.9062          0.3857        126.1875
 2531.0000          2.2422         38.3750          0.3530        119.5000
 2531.5000          2.2598         36.3125          0.3262        114.1250
 2532.0000          2.2148         37.1875          0.3345        116.8750
 2532.5000          2.1543         37.7188          0.3711        120.7500
 2533.0000          2.1211         40.2188          0.3945        127.0000
 2533.5000          2.0801         41.9375          0.4063        134.3750
 2534.0000          2.0449         43.6562          0.4258        144.2500
 2534.5000          2.0195         47.0312          0.4482        151.3750
 2535.0000          2.0078         49.0312          0.4556        158.2500
 2535.5000          2.0039         51.5000          0.4541        160.2500
 2536.0000          1.9932         52.3125          0.4482        159.2500
 2536.5000          1.9961         53.5000          0.4609        158.5000
 2537.0000          1.9971         55.3438          0.4692        158.6250
 2537.5000          2.0039         55.1875          0.4678        158.2500
 2538.0000          1.9980         57.0312          0.4546        159.0000
 2538.5000          2.0020         57.8125          0.4521        159.0000
 2539.0000          1.9980         60.3125          0.4624        159.7500
 2539.5000          2.0117         57.2188          0.4648        158.2500
 2540.0000          2.0371         53.6250          0.4624        155.3750
 2540.5000          2.0762         47.6875          0.4409        152.2500
 2541.0000          2.0938         46.3125          0.4365        150.0000
 2541.5000          2.0684         44.2188          0.4160        151.6250
 2542.0000          2.0312         45.4688          0.4082        149.3750
 2542.5000          2.0059         45.4062          0.4092        148.5000
 2543.0000          1.9980         47.5625          0.4268        151.8750
 2543.5000          2.0039         46.0938          0.4688        154.5000
 2544.0000          2.0605         43.2812          0.4688        143.0000
 2544.5000          2.1680         38.4688          0.4248        127.9375
 2545.0000          2.3164         32.7500          0.3442        109.2500
 2545.5000          2.3672         27.9375          0.2959         96.1250
 2546.0000          2.3223         25.6719          0.3154         97.5000
 2546.5000          2.2637         25.8281          0.3525        101.8750
 2547.0000          2.2539         26.2188          0.3530        105.2500
 2547.5000          2.2773         24.2969          0.3408        102.0625
 2548.0000          2.2656         22.7969          0.3335        103.7500
 2548.5000          2.2070         24.4531          0.3789        105.7500
 2549.0000          2.1309         31.5312          0.4238        115.3750
 2549.5000          2.0703         40.9375          0.4307        130.2500
 2550.0000          2.0293         48.4062          0.4321        145.3750
 2550.5000          1.9980         52.9062          0.4165        156.1250
 2551.0000          1.9834         53.0625          0.4272        161.1250
 2551.5000          1.9834         53.9062          0.4292        160.7500
 2552.0000          1.9873         52.8750          0.4385        157.2500
 2552.5000          1.9756         56.0625          0.4419        159.5000
 2553.0000          1.9688         55.7500          0.4394        160.7500
 2553.5000          1.9688         59.4688          0.4453        163.3750
 2554.0000          1.9795         58.4375          0.4331        163.5000
 2554.5000          1.9834         60.3125          0.4331        163.7500
 2555.0000          1.9912         53.8438          0.4243        163.7500
 2555.5000          1.9980         53.3750          0.4390        163.7500
 2556.0000          2.0117         49.2500          0.4526        164.6250
 2556.5000          2.0176         52.2812          0.4512        165.2500
 2557.0000          2.0234         51.7188          0.4551        166.2500
 2557.5000          2.0234         54.0312          0.4604        165.8750
 2558.0000          2.0195         53.6875          0.4775        164.5000
 2558.5000          2.0117         53.6875          0.4663        160.2500
 2559.0000          2.0195         53.1562          0.4394        158.5000
 2559.5000          2.0156         54.4688          0.4253        156.8750
 2560.0000          2.0195         54.8438          0.4434        155.3750
 2560.5000          2.0137         56.7188          0.4580        155.7500
 2561.0000          2.0098         56.5312          0.4404        152.7500
 2561.5000          2.0117         54.5938          0.4229        151.2500
 2562.0000          2.0176         53.7812          0.4360        151.8750
 2562.5000          2.0137         52.7188          0.4297        151.5000
 2563.0000          2.0195         53.8438          0.4468        152.7500
 2563.5000          2.0156         53.0625          0.4409        152.6250
 2564.0000          2.0137         54.7188          0.4756        151.2500
 2564.5000          2.0098         55.1250          0.4834        150.3750
 2565.0000          2.0098         56.0625          0.4932        150.1250
 2565.5000          2.0020         56.9688          0.4854        150.1250
 2566.0000          2.0059         57.5312          0.4717        151.2500
 2566.5000          2.0137         55.6562          0.4541        151.2500
 2567.0000          2.0547         55.9688          0.4473        151.8750
 2567.5000          2.0352         53.7812          0.4370        152.0000
 2568.0000          2.0391         54.6250          0.4351        152.1250
 2568.5000          2.0215         52.5625          0.4180        154.3750
 2569.0000          2.0254         52.9062          0.4253        152.8750
 2569.5000          2.0273         53.6562          0.4541        153.8750
 2570.0000          2.0352         54.4375          0.4819        154.0000
 2570.5000          2.0391         54.7500          0.4829        152.2500
 2571.0000          2.0391         56.0000          0.4639        153.0000
 2571.5000          2.0469         55.9375          0.4692        154.2500
 2572.0000          2.0469         57.2812          0.4590        154.8750
 2572.5000          2.0488         55.2812          0.4546        155.0000
 2573.0000          2.0449         53.6250          0.4277        155.0000
 2573.5000          2.0469         51.9375          0.4390        155.0000
 2574.0000          2.0449         51.3750          0.4360        152.8750
 2574.5000          2.0449         51.1250          0.4375        154.0000
 2575.0000          2.0488         52.5312          0.4170        153.6250
 2575.5000          2.0488         53.0625          0.4268        153.1250
 2576.0000          2.0449         57.0625          0.4351        154.8750
 2576.5000          2.0391         57.7188          0.4629        154.8750
 2577.0000          2.0391         60.3125          0.4590        154.7500
 2577.5000          2.0449         56.5625          0.4609        155.0000
 2578.0000          2.0488         57.4062          0.4512        155.1250
 2578.5000          2.0527         52.7188          0.4492        152.1250
 2579.0000          2.0547         50.1562          0.4380        147.6250
 2579.5000          2.0605         50.0312          0.4351        146.6250
 2580.0000          2.0625         52.7188          0.4429        146.3750
 2580.5000          2.0586         54.4688          0.4595        148.3750
 2581.0000          2.0566         51.8438          0.4741        152.7500
 2581.5000          2.0527         50.1875          0.4639        152.6250
 2582.0000          2.0664         50.4062          0.4565        152.2500
 2582.5000          2.0723         51.3125          0.4316        152.0000
