~VERSION INFORMATION
 VERS.                          2.0   : CWLS LOG ASCII STANDARD - VERSION 2.0
 WRAP.                          NO    : ONE LINE PER DEPTH STEP
#
~Well Information Section
#MNEM     .UNIT     DATA                DESCRIPTION
#-----    -----     --------            --------------
 STRT     .F        2155.0000           : START DEPTH
 STOP     .F        7672.0000           : END DEPTH
 STEP     .F        0.0000              : INCREMENT DEPTH
 NULL     .         -999.2500           : NULL VALUE
 COMP     .                              :
 WELL     .         WELL-2              : WELL NAME
 EKB      .F        73.0000             : KELLY BUSHING ELEVATION
 EGL      .F        0.0000              : GROUND LEVEL ELEVATION
 EPD      .F        0.0000              : PERMANENT DATUM ELEVATION
 FLD      .                              :
 LOC      . X = 246467.5900 Y = 8349201.3500: WELL LOCATION
 PROV     .                              :
 SRVC     .                              :
 PROV     .                              :
 DATE     .                              :
 API      .                              :
#
~Curve Information Section
#MNEM     .UNIT               Curve #DESCRIPTION
#-----    -----               ----   --------------
 DEPTH    .F                  : 1     Name = Domain Curve - Type = DEPTH
 RHOB     .g/cc               : 2     Name = Density - Type = Density
 GR       .API                : 3     Name = Gamma Ray - Type = Gamma Ray
 NPHI_LS  .fraction           : 4     Name = NPHI - Type = Porosity
 DT       .us/ft              : 5     Name = P-wave - Type = P-wave
~A (ASCII LOG DATA)
# ...
 4348.5000          2.3320         60.6250          0.3774        114.5000
 4349.0000          2.3242         62.5000          0.3574        114.1250
 4349.5000          2.3320         60.5312          0.3779        113.3750
 4350.0000          2.3184         59.2188          0.3931        114.0000
 4350.5000          2.3242         57.8125          0.4165        113.2500
 4351.0000          2.3262         60.4062          0.4150        113.6250
 4351.5000          2.3281         61.6562          0.4019        113.6250
 4352.0000          2.3301         63.9688          0.4102        114.1250
 4352.5000          2.3262         63.2188          0.4033        114.5000
 4353.0000          2.3203         65.5000          0.4160        115.0000
 4353.5000          2.3203         63.7812          0.4082        116.5000
 4354.0000          2.3027         62.9062          0.4058        116.5000
 4354.5000          2.3105         61.9688          0.3809        116.7500
 4355.0000          2.2969         61.3125          0.3921        117.1250
 4355.5000          2.3262         62.6875          0.4043        116.0000
 4356.0000          2.3379         63.5312          0.4424        115.0000
 4356.5000          2.3535         66.3125          0.4170        115.5000
 4357.0000          2.3359         67.1875          0.4170        115.0000
 4357.5000          2.3242         65.0625          0.3721        115.5000
 4358.0000          2.3262         60.8750          0.3838        116.0000
 4358.5000          2.3262         61.6562          0.3862        115.7500
 4359.0000          2.3320         61.6562          0.4204        115.1250
 4359.5000          2.3223         64.0000          0.4072        113.8750
 4360.0000          2.3164         59.7188          0.4063        113.8750
 4360.5000          2.3145         59.9375          0.3877        114.3750
 4361.0000          2.3203         60.8438          0.3965        115.7500
 4361.5000          2.3281         62.7500          0.3921        115.7500
 4362.0000          2.3320         62.6250          0.3877        115.0000
 4362.5000          2.3418         61.4375          0.3853        114.1250
 4363.0000          2.3418         62.2188          0.3789        112.1250
 4363.5000          2.3438         61.6250          0.3823        110.5000
 4364.0000          2.3398         62.3438          0.3774        110.2500
 4364.5000          2.3516         62.7188          0.3682        109.8750
 4365.0000          2.3574         65.0625          0.3804        110.5000
 4365.5000          2.3633         61.2500          0.3853        112.1250
 4366.0000          2.3574         60.0312          0.3931        113.1250
 4366.5000          2.3496         57.9062          0.3989        113.5625
 4367.0000          2.3359         59.1875          0.3877        113.0000
 4367.5000          2.3242         59.5000          0.3950        112.2500
 4368.0000          2.3066         57.9375          0.3911        112.1250
 4368.5000          2.3320         59.7500          0.4077        112.7500
 4369.0000          2.3086         58.2188          0.4116        113.1250
 4369.5000          2.3125         61.1562          0.4233        115.0000
 4370.0000          2.2969         60.1875          0.4258        117.0000
 4370.5000          2.2930         60.8438          0.4238        117.6250
 4371.0000          2.2910         60.0312          0.4004        115.5000
 4371.5000          2.3164         60.9688          0.4028        116.0000
 4372.0000          2.3125         60.4688          0.4092        116.0000
 4372.5000          2.3262         58.7500          0.4243        115.2500
 4373.0000          2.2891         56.9688          0.4282        113.1250
 4373.5000          2.2734         57.6875          0.4180        113.5000
 4374.0000          2.2598         59.5000          0.4185        114.6250
 4374.5000          2.2461         61.9375          0.4219        115.2500
 4375.0000          2.2383         61.0938          0.4326        116.7500
 4375.5000          2.2344         61.4375          0.4311        117.2500
 4376.0000          2.2480         58.6250          0.4311        116.7500
 4376.5000          2.2500         61.8750          0.4443        117.1250
 4377.0000          2.2266         61.7812          0.4517        117.1250
 4377.5000          2.2383         63.4062          0.4517        117.3750
 4378.0000          2.2422         62.8750          0.4356        117.5000
 4378.5000          2.2695         63.7188          0.4141        116.8750
 4379.0000          2.2852         65.4375          0.4043        116.2500
 4379.5000          2.2930         65.6250          0.4063        116.2500
 4380.0000          2.2832         67.6250          0.4194        117.8750
 4380.5000          2.2422         66.3125          0.3975        119.0000
 4381.0000          2.2344         66.8750          0.3955        120.1250
 4381.5000          2.2441         65.4375          0.3979        120.8750
 4382.0000          2.2832         65.9375          0.4277        120.1250
 4382.5000          2.2891         62.3125          0.4204        119.0000
 4383.0000          2.2930         60.2500          0.4033        118.5000
 4383.5000          2.2520         60.7188          0.4170        117.8750
 4384.0000          2.2754         60.9688          0.4160        117.7500
 4384.5000          2.2754         63.0312          0.4258        118.7500
 4385.0000          2.2832         59.7812          0.3916        118.5000
 4385.5000          2.2832         60.2500          0.4043        118.7500
 4386.0000          2.2891         59.5000          0.3975        118.5000
 4386.5000          2.2969         60.9062          0.4058        118.2500
 4387.0000          2.2832         64.3125          0.3999        118.1250
 4387.5000          2.2656         63.0000          0.4150        118.2500
 4388.0000          2.2539         63.3750          0.4204        117.8750
 4388.5000          2.2383         61.3125          0.4404        118.6250
 4389.0000          2.2344         61.6250          0.4453        119.2500
 4389.5000          2.2090         63.2812          0.4439        119.8750
 4390.0000          2.2305         63.2812          0.4351        120.8750
 4390.5000          2.2266         63.0000          0.4214        121.0000
 4391.0000          2.2773         63.1875          0.4272        119.5000
 4391.5000          2.2969         63.9062          0.4575        119.3750
 4392.0000          2.3086         62.3125          0.4639        119.2500
 4392.5000          2.2969         61.4688          0.4614        118.7500
 4393.0000          2.2969         61.3750          0.4165        119.1250
 4393.5000          2.2969         66.3750          0.4233        119.7500
 4394.0000          2.2871         67.9375          0.4102        119.5000
 4394.5000          2.2578         67.3125          0.4175        119.2500
 4395.0000          2.2891         62.5625          0.4063        120.1250
 4395.5000          2.2793         59.8750          0.4155        120.1250
 4396.0000          2.2949         61.8125          0.4038        119.7500
 4396.5000          2.2559         63.7188          0.4038        119.1250
 4397.0000          2.2676         66.9375          0.4155        118.6250
 4397.5000          2.2969         63.5938          0.4150        119.2500
 4398.0000          2.3125         63.9688          0.4082        118.8750
 4398.5000          2.3066         62.4688          0.3789        120.0000
 4399.0000          2.2832         64.1875          0.3911        119.3750
 4399.5000          2.2930         66.7500          0.3936        118.7500
 4400.0000          2.3086         65.1875          0.4023        117.1250
 4400.5000          2.3203         62.4375          0.3965        113.7500
 4401.0000          2.3223         58.6250          0.4063        109.1250
 4401.5000          2.3457         58.4062          0.4141        106.3750
