~VERSION INFORMATION
 VERS.                          2.0   : CWLS LOG ASCII STANDARD - VERSION 2.0
 WRAP.                          NO    : ONE LINE PER DEPTH STEP
#
~Well Information Section
#MNEM     .UNIT     DATA                DESCRIPTION
#-----    -----     --------            --------------
 STRT     .F        2155.0000           : START DEPTH
 STOP     .F        7672.0000           : END DEPTH
 STEP     .F        0.0000              : INCREMENT DEPTH
 NULL     .         -999.2500           : NULL VALUE
 COMP     .                              :
 WELL     .         WELL-2              : WELL NAME
 EKB      .F        73.0000             : KELLY BUSHING ELEVATION
 EGL      .F        0.0000              : GROUND LEVEL ELEVATION
 EPD      .F        0.0000              : PERMANENT DATUM ELEVATION
 FLD      .                              :
 LOC      . X = 246467.5900 Y = 8349201.3500: WELL LOCATION
 PROV     .                              :
 SRVC     .                              :
 PROV     .                              :
 DATE     .                              :
 API      .                              :
#
~Curve Information Section
#MNEM     .UNIT               Curve #DESCRIPTION
#-----    -----               ----   --------------
 DEPTH    .F                  : 1     Name = Domain Curve - Type = DEPTH
 RHOB     .g/cc               : 2     Name = Density - Type = Density
 GR       .API                : 3     Name = Gamma Ray - Type = Gamma Ray
 NPHI_LS  .fraction           : 4     Name = NPHI - Type = Porosity
 DT       .us/ft              : 5     Name = P-wave - Type = P-wave
~A (ASCII LOG DATA)
# ...
 5418.5000          2.4316         54.2812          0.2534         92.6875
 5419.0000          2.4023         57.4062          0.2642         94.0625
 5419.5000          2.3984         59.5000          0.2842         94.9375
 5420.0000          2.3965         57.4688          0.2964         96.6875
 5420.5000          2.4160         57.4688          0.3081         97.1250
 5421.0000          2.4141         58.3125          0.2915         97.7500
 5421.5000          2.4043         59.6562          0.2861         98.4375
 5422.0000          2.3984         59.6562          0.2710         98.1250
 5422.5000          2.3965         57.3750          0.2637         98.3750
 5423.0000          2.3965         56.3125          0.2754         97.6250
 5423.5000          2.3906         54.3438          0.2764         97.5000
 5424.0000          2.3828         51.2188          0.2671         96.2500
 5424.5000          2.3887         47.8125          0.2466         95.5625
 5425.0000          2.3828         48.2188          0.2481         95.0000
 5425.5000          2.3750         48.8125          0.2705         94.6875
 5426.0000          2.3711         48.8125          0.2988         95.1875
 5426.5000          2.3691         47.0938          0.2988         95.1250
 5427.0000          2.3926         46.6562          0.2920         93.1250
 5427.5000          2.4102         50.1562          0.2646         91.6875
 5428.0000          2.4355         49.2812          0.2583         90.0000
 5428.5000          2.4277         52.0625          0.2539         89.6875
 5429.0000          2.4219         50.8438          0.2598         90.9375
 5429.5000          2.4180         54.0000          0.2607         93.5625
 5430.0000          2.4297         54.8750          0.2676         94.4375
 5430.5000          2.4297         56.6250          0.2759         94.7500
 5431.0000          2.4316         59.7500          0.2983         95.8750
 5431.5000          2.4219         61.9375          0.3076         96.6250
 5432.0000          2.4180         60.8125          0.3213         97.8750
 5432.5000          2.4141         60.4375          0.3140         98.6250
 5433.0000          2.4199         55.9688          0.3315         99.0000
 5433.5000          2.4102         55.5625          0.3291         99.0000
 5434.0000          2.3965         54.1562          0.3457         98.8750
 5434.5000          2.3848         56.0938          0.3438         99.1250
 5435.0000          2.3965         56.5312          0.3364         98.6875
 5435.5000          2.4062         56.4375          0.3384         98.7500
 5436.0000          2.4160         57.6250          0.3228         99.2500
 5436.5000          2.4180         59.4375          0.3179        100.2500
 5437.0000          2.4219         58.8750          0.3125        100.8125
 5437.5000          2.4375         58.1562          0.3291        101.6250
 5438.0000          2.4277         56.9375          0.3354        101.7500
 5438.5000          2.4121         58.1250          0.3291        101.4375
 5439.0000          2.4004         59.8438          0.3076        101.9375
 5439.5000          2.4023         59.1562          0.3042        103.3750
 5440.0000          2.3906         58.5000          0.3091        107.3125
 5440.5000          2.3535         58.5938          0.3330        111.5625
 5441.0000          2.2715         59.1875          0.3804        117.3750
 5441.5000          2.2422         59.0000          0.3975        119.0625
 5442.0000          2.2461         59.4062          0.3774        114.3750
 5442.5000          2.3125         56.7812          0.3296        106.0000
 5443.0000          2.3965         52.8125          0.2842         96.3125
 5443.5000          2.4453         48.9375          0.2642         91.3750
 5444.0000          2.4453         49.8125          0.2397         90.9375
 5444.5000          2.4336         52.8125          0.2427         93.0625
 5445.0000          2.4180         55.7188          0.2490         94.8125
 5445.5000          2.4219         60.3438          0.2666         96.3750
 5446.0000          2.4160         64.0625          0.2783         99.4375
 5446.5000          2.4160         64.9375          0.2827         97.5625
 5447.0000          2.4160         62.4688          0.2822         99.2500
 5447.5000          2.4180         59.9688          0.2798         97.9375
 5448.0000          2.4336         57.0625          0.2783         96.9375
 5448.5000          2.4395         57.7500          0.2871         96.2500
 5449.0000          2.4629         54.5312          0.2886         93.7500
 5449.5000          2.4590         53.3125          0.2744         92.3125
 5450.0000          2.4531         50.6250          0.2519         92.3750
 5450.5000          2.4258         52.0625          0.2305         93.3125
 5451.0000          2.4043         52.0000          0.2432         95.0625
 5451.5000          2.3887         55.0312          0.2549         96.3750
 5452.0000          2.3906         56.3125          0.2676         96.5625
 5452.5000          2.4023         59.3438          0.2734         97.4375
 5453.0000          2.4121         58.0312          0.2725         98.0625
 5453.5000          2.4258         59.6875          0.2793         99.3750
 5454.0000          2.4277         60.8125          0.2749         99.1875
 5454.5000          2.4395         63.4375          0.2778        100.8125
 5455.0000          2.4395         64.8125          0.2773        101.8750
 5455.5000          2.4395         65.0000          0.2969        102.1250
 5456.0000          2.4336         65.7500          0.3096        103.1875
 5456.5000          2.4336         65.0625          0.3135        103.1250
 5457.0000          2.4453         64.7500          0.3135        103.6250
 5457.5000          2.4551         62.5625          0.3198        103.7500
 5458.0000          2.4531         64.1875          0.3252        103.8125
 5458.5000          2.4531         64.0625          0.3252        104.0000
 5459.0000          2.4473         64.1250          0.3144        103.8125
 5459.5000          2.4512         61.8438          0.3149        102.2500
 5460.0000          2.4551         61.5000          0.2983         99.3125
 5460.5000          2.4707         59.5312          0.2837         95.8750
 5461.0000          2.4785         58.6875          0.2656         93.8750
 5461.5000          2.4766         59.4062          0.2700         93.2500
 5462.0000          2.4531         62.5312          0.2847         95.6250
 5462.5000          2.4375         61.5000          0.3052         98.8750
 5463.0000          2.4258         62.0625          0.3091        100.7500
 5463.5000          2.4316         64.7500          0.3208        102.6250
 5464.0000          2.4395         65.0000          0.3320        103.6250
 5464.5000          2.4395         64.9375          0.3491        103.7500
 5465.0000          2.4473         60.7812          0.3540        103.8125
 5465.5000          2.4473         62.4688          0.3564        103.6250
 5466.0000          2.4609         60.3125          0.3506        101.4375
 5466.5000          2.4629         61.6875          0.3481         98.9375
 5467.0000          2.4746         61.6562          0.3267         97.8125
 5467.5000          2.4824         64.3750          0.3359         97.7500
 5468.0000          2.4805         64.8125          0.3252         98.9375
 5468.5000          2.4727         66.4375          0.3301        100.3750
 5469.0000          2.4551         65.5625          0.3232        102.1875
 5469.5000          2.4531         63.7812          0.3364        103.0625
 5470.0000          2.4434         62.9688          0.3433        103.2500
 5470.5000          2.4453         63.2188          0.3486        103.6875
 5471.0000          2.4355         65.2500          0.3496        104.7500
 5471.5000          2.4375         65.8125          0.3584        104.5000
