~VERSION INFORMATION
 VERS.                          2.0   : CWLS LOG ASCII STANDARD - VERSION 2.0
 WRAP.                          NO    : ONE LINE PER DEPTH STEP
#
~Well Information Section
#MNEM     .UNIT     DATA                DESCRIPTION
#-----    -----     --------            --------------
 STRT     .F        2155.0000           : START DEPTH
 STOP     .F        7672.0000           : END DEPTH
 STEP     .F        0.0000              : INCREMENT DEPTH
 NULL     .         -999.2500           : NULL VALUE
 COMP     .                              :
 WELL     .         WELL-2              : WELL NAME
 EKB      .F        73.0000             : KELLY BUSHING ELEVATION
 EGL      .F        0.0000              : GROUND LEVEL ELEVATION
 EPD      .F        0.0000              : PERMANENT DATUM ELEVATION
 FLD      .                              :
 LOC      . X = 246467.5900 Y = 8349201.3500: WELL LOCATION
 PROV     .                              :
 SRVC     .                              :
 PROV     .                              :
 DATE     .                              :
 API      .                              :
#
~Curve Information Section
#MNEM     .UNIT               Curve #DESCRIPTION
#-----    -----               ----   --------------
 DEPTH    .F                  : 1     Name = Domain Curve - Type = DEPTH
 RHOB     .g/cc               : 2     Name = Density - Type = Density
 GR       .API                : 3     Name = Gamma Ray - Type = Gamma Ray
 NPHI_LS  .fraction           : 4     Name = NPHI - Type = Porosity
 DT       .us/ft              : 5     Name = P-wave - Type = P-wave
~A (ASCII LOG DATA)
# ...
 7237.5000          2.1934         26.5625          0.2114         89.3125
 7238.0000          2.1973         30.4375          0.2075         87.7500
 7238.4995          2.2148         32.0625          0.2271         87.7500
 7239.0005          2.2246         31.8594          0.2388         87.6250
 7239.5000          2.2129         28.2969          0.2559         88.3750
 7240.0000          2.2012         27.3438          0.2427         89.0625
 7240.4995          2.2109         25.9219          0.2378         89.3750
 7241.0005          2.2324         25.6094          0.2212         88.5000
 7241.5000          2.2578         22.2969          0.2183         87.5625
 7242.0000          2.2578         19.6875          0.2148         88.0625
 7242.5000          2.2363         19.4844          0.2134         87.8750
 7242.9995          2.2168         20.8906          0.2139         88.0625
 7243.5000          2.2070         23.8125          0.2104         88.2500
 7244.0000          2.2051         23.9219          0.2197         88.5000
 7244.5000          2.2070         23.8281          0.2241         89.3125
 7244.9995          2.2070         20.8750          0.2266         90.3125
 7245.5005          2.2129         20.0000          0.2246         90.8125
 7246.0000          2.2109         19.6094          0.2271         91.3125
 7246.5000          2.2129         21.5312          0.2295         91.5000
 7246.9995          2.2168         24.4688          0.2280         92.3750
 7247.5005          2.2363         28.5156          0.2256         92.4375
 7248.0000          2.2402         32.1875          0.2178         93.3125
 7248.5000          2.2422         33.7188          0.2148         93.9375
 7249.0000          2.2344         33.7812          0.1963         93.6875
 7249.4995          2.2715         36.8438          0.1841         91.6250
 7250.0000          2.3555         45.1562          0.1738         87.5625
 7250.5000          2.4297         56.1250          0.1826         84.5625
 7251.0000          2.4297         59.6562          0.1938         83.3125
 7251.4995          2.3809         55.2500          0.1929         82.2500
 7252.0005          2.3516         50.3750          0.1831         82.1875
 7252.5000          2.3457         52.4062          0.1802         83.1875
 7253.0000          2.3887         65.5625          0.1929         82.0000
 7253.4995          2.4688         78.5000          0.2100         80.7500
 7254.0005          2.5605         86.3125          0.2178         79.2500
 7254.5000          2.5977         84.8125          0.2173         76.7500
 7255.0000          2.5781         79.1875          0.2188         75.4375
 7255.5000          2.5508         75.2500          0.2178         75.1250
 7255.9995          2.5371         73.0625          0.2202         75.2500
 7256.5000          2.5547         73.8125          0.2188         78.7500
 7257.0000          2.5957         72.6875          0.2202         79.3750
 7257.5000          2.6387         67.9375          0.2329         79.1875
 7257.9995          2.5781         60.5000          0.2539         78.2500
 7258.5005          2.4512         52.0625          0.2866         79.9375
 7259.0000          2.3320         46.7812          0.3179         83.1250
 7259.5000          2.2812         43.2812          0.3276         89.6875
 7259.9995          2.2910         42.5938          0.3218         94.4375
 7260.5005          2.3203         42.6562          0.3330         91.8125
 7261.0000          2.3770         46.5625          0.3330         88.1875
 7261.5000          2.4355         56.8438          0.3057         84.0625
 7262.0000          2.5195         66.1875          0.2295         79.8125
 7262.4995          2.5586         71.2500          0.1733         76.0625
 7263.0000          2.5664         69.5000          0.1543         72.6250
 7263.5000          2.5645         70.8125          0.1572         72.8750
 7264.0000          2.5762         77.0000          0.1792         73.9375
 7264.4995          2.5840         88.8750          0.1958         74.5625
 7265.0005          2.5742         91.9375          0.2124         75.6250
 7265.5000          2.5371         85.4375          0.2051         77.0625
 7266.0000          2.5078         74.4375          0.1851         77.0000
 7266.4995          2.4844         71.6875          0.1831         78.6250
 7267.0005          2.4688         68.0625          0.1987         80.6250
 7267.5000          2.4043         55.2812          0.2192         83.5625
 7268.0000          2.3301         36.6562          0.2173         87.1250
 7268.5000          2.2773         25.0469          0.2104         87.1875
 7268.9995          2.2539         22.1562          0.2148         87.9375
 7269.5000          2.2383         21.2031          0.2217         89.5000
 7270.0000          2.2383         20.2656          0.2310         91.0625
 7270.5000          2.2695         18.3125          0.2329         90.8125
 7270.9995          2.3672         16.6719          0.2402         89.1875
 7271.5005          2.4336         16.3906          0.2383         88.6250
 7272.0000          2.4590         16.0781          0.2383         87.5000
 7272.5000          2.3926         17.6719          0.2349         88.3125
 7272.9995          2.3027         18.5469          0.2353         89.3750
 7273.5005          2.2773         23.6562          0.2349         90.6875
 7274.0000          2.2695         30.9844          0.2319         91.5625
 7274.5000          2.2852         35.2188          0.2275         89.4375
 7275.0000          2.2773         35.9375          0.2212         89.8125
 7275.4995          2.2773         30.2344          0.2236         87.8125
 7276.0000          2.2422         25.7031          0.2280         88.1875
 7276.5000          2.2109         22.1406          0.2310         90.8125
 7277.0000          2.2188         26.5938          0.2456         89.3125
 7277.4995          2.2188         31.1250          0.2422         91.5000
 7278.0005          2.2266         33.4375          0.2368         91.2500
 7278.5000          2.2207         31.8906          0.2134         90.6250
 7279.0000          2.2734         38.7812          0.2251         91.6250
 7279.4995          2.2988         46.0000          0.2417         91.7500
 7280.0005          2.2773         44.1250          0.2554         91.8125
 7280.5000          2.2324         34.3438          0.2432         92.6250
 7281.0000          2.2051         26.9844          0.2393         94.8125
 7281.5000          2.2031         27.8750          0.2353         95.3125
 7281.9995          2.2051         27.5312          0.2378         95.2500
 7282.5000          2.2324         29.4531          0.2241         95.5625
 7283.0000          2.2617         35.1875          0.2241         95.1875
 7283.5000          2.2715         38.0312          0.2251         94.1250
 7283.9995          2.2480         37.4062          0.2378         92.9375
 7284.5005          2.2227         28.4688          0.2397         92.8125
 7285.0000          2.2109         24.9062          0.2437         94.2500
 7285.5000          2.1992         22.6094          0.2388         94.7500
 7285.9995          2.2070         25.4844          0.2334         95.9375
 7286.5005          2.2207         28.0469          0.2378         95.1875
 7287.0000          2.2266         26.5000          0.2461         95.0000
 7287.5000          2.2012         23.0000          0.2515         95.2500
 7288.0000          2.1855         19.9062          0.2441         95.2500
 7288.4995          2.1836         23.6406          0.2363         96.0625
 7289.0000          2.2344         38.3438          0.2373         97.1875
 7289.5000          2.3125         60.7812          0.2451         94.6875
 7290.0000          2.4102         81.5000          0.2676         90.7500
 7290.4995          2.3789         85.3750          0.2627         87.7500
