~VERSION INFORMATION
 VERS.                          2.0   : CWLS LOG ASCII STANDARD - VERSION 2.0
 WRAP.                          NO    : ONE LINE PER DEPTH STEP
#
~Well Information Section
#MNEM     .UNIT     DATA                DESCRIPTION
#-----    -----     --------            --------------
 STRT     .F        2155.0000           : START DEPTH
 STOP     .F        7672.0000           : END DEPTH
 STEP     .F        0.0000              : INCREMENT DEPTH
 NULL     .         -999.2500           : NULL VALUE
 COMP     .                              :
 WELL     .         WELL-2              : WELL NAME
 EKB      .F        73.0000             : KELLY BUSHING ELEVATION
 EGL      .F        0.0000              : GROUND LEVEL ELEVATION
 EPD      .F        0.0000              : PERMANENT DATUM ELEVATION
 FLD      .                              :
 LOC      . X = 246467.5900 Y = 8349201.3500: WELL LOCATION
 PROV     .                              :
 SRVC     .                              :
 PROV     .                              :
 DATE     .                              :
 API      .                              :
#
~Curve Information Section
#MNEM     .UNIT               Curve #DESCRIPTION
#-----    -----               ----   --------------
 DEPTH    .F                  : 1     Name = Domain Curve - Type = DEPTH
 RHOB     .g/cc               : 2     Name = Density - Type = Density
 GR       .API                : 3     Name = Gamma Ray - Type = Gamma Ray
 NPHI_LS  .fraction           : 4     Name = NPHI - Type = Porosity
 DT       .us/ft              : 5     Name = P-wave - Type = P-wave
~A (ASCII LOG DATA)
# ...
 5044.0000          2.4043         60.3125          0.2896        102.8750
 5044.5000          2.4004         60.1250          0.2988        102.4375
 5045.0000          2.3984         60.0000          0.2983        103.2500
 5045.5000          2.3945         58.7500          0.3057        103.0000
 5046.0000          2.4004         59.4375          0.3052        101.9375
 5046.5000          2.4102         56.4375          0.3047         98.0625
 5047.0000          2.4316         51.5312          0.3037         93.1250
 5047.5000          2.4375         45.7812          0.2861         89.0000
 5048.0000          2.4355         44.5312          0.2729         88.1250
 5048.5000          2.4082         46.2188          0.2676         89.7500
 5049.0000          2.3594         44.4062          0.2661         94.3750
 5049.5000          2.3105         43.8438          0.2808         97.9375
 5050.0000          2.2617         40.5000          0.2905        100.9375
 5050.5000          2.2422         41.3750          0.3120        102.1875
 5051.0000          2.2285         41.9688          0.3286        102.4375
 5051.5000          2.2324         42.1562          0.3389        102.8125
 5052.0000          2.2422         42.7188          0.3486        102.6875
 5052.5000          2.2520         40.5625          0.3364        102.5625
 5053.0000          2.2480         42.9688          0.3413        102.7500
 5053.5000          2.2520         43.6250          0.3267        102.2500
 5054.0000          2.2617         45.5000          0.3267        102.7500
 5054.5000          2.2812         45.5312          0.3345        102.6875
 5055.0000          2.2754         47.1875          0.3477        103.0625
 5055.5000          2.2637         47.0000          0.3491        103.2500
 5056.0000          2.2500         46.0312          0.3325        103.0625
 5056.5000          2.2480         45.3438          0.3271        103.5000
 5057.0000          2.2363         46.6250          0.3271        102.6875
 5057.5000          2.2422         47.8750          0.3301        103.0625
 5058.0000          2.2539         47.3750          0.3359        101.9375
 5058.5000          2.2812         49.6875          0.3237        101.8125
 5059.0000          2.2910         49.0000          0.3228        100.8125
 5059.5000          2.2930         49.6250          0.3130        100.8125
 5060.0000          2.2930         46.2500          0.3252         98.5625
 5060.5000          2.2969         46.6875          0.3203         93.9375
 5061.0000          2.3223         45.2812          0.2993         89.6250
 5061.5000          2.3809         43.2500          0.2583         85.7500
 5062.0000          2.4316         41.3125          0.2353         84.7500
 5062.5000          2.4121         41.9062          0.2417         87.8750
 5063.0000          2.3457         41.7188          0.2715         91.3125
 5063.5000          2.3203         42.6250          0.2773         89.3125
 5064.0000          2.3320         41.3438          0.2617         86.9375
 5064.5000          2.3652         41.5625          0.2402         86.6250
 5065.0000          2.3711         40.9688          0.2559         87.6250
 5065.5000          2.3438         41.3438          0.2734         93.3125
 5066.0000          2.2930         43.3438          0.3027         97.1250
 5066.5000          2.2715         43.8750          0.3135         97.1250
 5067.0000          2.2734         44.1875          0.3281         99.0000
 5067.5000          2.2871         43.0625          0.3364         99.9375
 5068.0000          2.2910         41.5000          0.3447         98.7500
 5068.5000          2.3262         38.2500          0.3037         94.6250
 5069.0000          2.3906         35.7812          0.2564         89.0625
 5069.5000          2.4297         35.1562          0.2031         82.7500
 5070.0000          2.4102         35.6250          0.2119         82.8750
 5070.5000          2.3477         36.4688          0.2275         84.3125
 5071.0000          2.3223         35.8750          0.2603         89.3125
 5071.5000          2.3008         37.1875          0.2808         91.7500
 5072.0000          2.2715         37.2812          0.3193         95.7500
 5072.5000          2.2422         36.0625          0.3115         93.3125
 5073.0000          2.2754         33.8750          0.2837         86.0625
 5073.5000          2.3281         30.8281          0.2490         84.5625
 5074.0000          2.3652         32.6875          0.2617         84.5625
 5074.5000          2.3145         31.1094          0.2861         85.3750
 5075.0000          2.2949         33.3125          0.3057         84.9375
 5075.5000          2.3203         31.3438          0.3042         87.7500
 5076.0000          2.3281         33.5625          0.3096         88.1875
 5076.5000          2.2891         34.0938          0.3164         91.4375
 5077.0000          2.2383         36.3750          0.3174         96.5625
 5077.5000          2.2227         36.1875          0.3257         99.6250
 5078.0000          2.2207         34.5938          0.3271        100.5625
 5078.5000          2.2266         33.9375          0.3428         99.8125
 5079.0000          2.2305         33.2812          0.3320         97.3125
 5079.5000          2.2969         34.0938          0.2983         89.8125
 5080.0000          2.3691         32.9062          0.2451         81.5625
 5080.5000          2.4434         35.0312          0.2271         77.6250
 5081.0000          2.3809         36.5312          0.2427         79.5625
 5081.5000          2.2930         38.0000          0.2891         85.3125
 5082.0000          2.2363         38.3750          0.3164         93.6875
 5082.5000          2.2246         38.8750          0.3271         97.6250
 5083.0000          2.2324         40.0312          0.3301         98.1250
 5083.5000          2.2266         38.6250          0.3369         98.0625
 5084.0000          2.2168         37.6875          0.3296         98.3750
 5084.5000          2.2109         37.1875          0.3184         97.0000
 5085.0000          2.2168         37.4375          0.3228         97.0625
 5085.5000          2.2129         37.1562          0.3486         96.6875
 5086.0000          2.2109         34.5625          0.3491         95.7500
 5086.5000          2.1973         35.4688          0.3369         94.5000
 5087.0000          2.1895         36.0938          0.3325         93.9375
 5087.5000          2.1953         39.1250          0.3286         93.6250
 5088.0000          2.2031         39.1562          0.3354         94.2500
 5088.5000          2.2090         36.9062          0.3403         95.2500
 5089.0000          2.2285         35.4375          0.3267         93.1250
 5089.5000          2.2910         36.2812          0.2788         89.4375
 5090.0000          2.3730         38.7812          0.2148         84.2500
 5090.5000          2.4043         38.0625          0.2139         81.0000
 5091.0000          2.3496         38.2188          0.2476         85.1875
 5091.5000          2.2832         41.2188          0.2871         90.2500
 5092.0000          2.2598         46.5000          0.2979         97.2500
 5092.5000          2.3047         53.5625          0.2988        100.1875
 5093.0000          2.3594         58.8438          0.3115        101.4375
 5093.5000          2.3984         60.7500          0.3247        102.6250
 5094.0000          2.3965         59.8438          0.3315        106.5000
 5094.5000          2.3984         58.4688          0.3276        107.2500
 5095.0000          2.3984         60.7188          0.3320        107.6250
 5095.5000          2.4043         58.2812          0.3350        107.0000
 5096.0000          2.4062         57.7812          0.3472        107.5625
 5096.5000          2.4180         54.5625          0.3398        107.0625
 5097.0000          2.4219         55.1250          0.3374        106.7500
