~VERSION INFORMATION
 VERS.                          2.0   : CWLS LOG ASCII STANDARD - VERSION 2.0
 WRAP.                          NO    : ONE LINE PER DEPTH STEP
#
~Well Information Section
#MNEM     .UNIT     DATA                DESCRIPTION
#-----    -----     --------            --------------
 STRT     .F        2155.0000           : START DEPTH
 STOP     .F        7672.0000           : END DEPTH
 STEP     .F        0.0000              : INCREMENT DEPTH
 NULL     .         -999.2500           : NULL VALUE
 COMP     .                              :
 WELL     .         WELL-2              : WELL NAME
 EKB      .F        73.0000             : KELLY BUSHING ELEVATION
 EGL      .F        0.0000              : GROUND LEVEL ELEVATION
 EPD      .F        0.0000              : PERMANENT DATUM ELEVATION
 FLD      .                              :
 LOC      . X = 246467.5900 Y = 8349201.3500: WELL LOCATION
 PROV     .                              :
 SRVC     .                              :
 PROV     .                              :
 DATE     .                              :
 API      .                              :
#
~Curve Information Section
#MNEM     .UNIT               Curve #DESCRIPTION
#-----    -----               ----   --------------
 DEPTH    .F                  : 1     Name = Domain Curve - Type = DEPTH
 RHOB     .g/cc               : 2     Name = Density - Type = Density
 GR       .API                : 3     Name = Gamma Ray - Type = Gamma Ray
 NPHI_LS  .fraction           : 4     Name = NPHI - Type = Porosity
 DT       .us/ft              : 5     Name = P-wave - Type = P-wave
~A (ASCII LOG DATA)
# ...
 3599.5000          2.2344         64.7500          0.3413        122.1250
 3600.0002          2.2793         68.8750          0.3628        127.3125
 3600.5000          2.2988         70.0625          0.3755        128.1250
 3601.0002          2.2871         69.9375          0.3843        130.6250
 3601.5000          2.2812         73.1250          0.4087        132.3750
 3601.9998          2.2734         70.2500          0.4058        131.7500
 3602.5000          2.2715         70.2500          0.4058        132.7500
 3602.9998          2.2715         69.9375          0.3833        134.0000
 3603.5000          2.2754         71.2500          0.3706        132.5000
 3603.9998          2.2656         72.9375          0.3774        132.5000
 3604.5000          2.2656         75.3125          0.3979        132.2500
 3605.0000          2.2637         77.1875          0.3955        129.7500
 3605.5000          2.2676         75.8750          0.3999        128.5000
 3606.0000          2.2734         73.8750          0.3745        127.6250
 3606.5002          2.2695         71.5000          0.3877        126.0000
 3607.0000          2.2656         71.8750          0.3975        128.0000
 3607.5002          2.2578         72.2500          0.4131        129.2500
 3608.0000          2.2578         72.8750          0.4224        130.0000
 3608.4998          2.2539         74.1250          0.4082        129.8750
 3609.0000          2.2461         74.3750          0.3945        129.6250
 3609.4998          2.2441         77.4375          0.4102        130.1250
 3610.0000          2.2520         77.1875          0.4360        131.6250
 3610.4998          2.2539         76.1875          0.4536        132.6250
 3611.0000          2.2598         72.6250          0.4443        134.2500
 3611.5000          2.2559         70.8750          0.4253        132.7500
 3612.0000          2.2637         70.4375          0.4194        132.2500
 3612.5000          2.2578         70.4375          0.4063        127.6250
 3613.0002          2.2598         65.1875          0.3877        124.2500
 3613.5000          2.2520         54.7812          0.3774        117.3125
 3614.0002          2.2305         44.5938          0.3618        111.1875
 3614.5000          2.2012         40.2812          0.3574        109.5000
 3614.9998          2.1699         40.8438          0.3389        107.9375
 3615.5000          2.1445         40.4375          0.3203        109.0625
 3615.9998          2.1309         42.4375          0.3061        109.0625
 3616.5000          2.1387         43.2812          0.2974        109.5000
 3616.9998          2.1602         47.2812          0.3027        110.5625
 3617.5000          2.1719         49.2188          0.2988        111.2500
 3618.0000          2.1621         52.6250          0.3149        113.3750
 3618.5000          2.1641         57.4062          0.3149        115.0000
 3619.0000          2.1953         61.5625          0.3496        115.6250
 3619.5002          2.2324         63.0938          0.3569        115.1875
 3620.0000          2.2363         63.7812          0.3604        113.8750
 3620.5002          2.2207         61.9375          0.3428        113.0000
 3621.0000          2.2148         62.5000          0.3428        113.8750
 3621.4998          2.2207         59.5000          0.3389        113.6250
 3622.0000          2.2227         59.0312          0.3394        114.1250
 3622.4998          2.2188         54.5938          0.3403        112.3750
 3623.0000          2.2227         54.2812          0.3496        110.3125
 3623.4998          2.2305         50.0312          0.3413        107.1875
 3624.0000          2.2461         48.7812          0.3252        105.7500
 3624.5000          2.2617         47.2500          0.3174        105.3750
 3625.0000          2.2754         49.7188          0.3037        105.6250
 3625.5000          2.2832         53.0312          0.3154        107.8125
 3626.0002          2.2832         51.6250          0.3154        108.0625
 3626.5000          2.2773         49.8438          0.3179        107.9375
 3627.0002          2.2832         48.6562          0.3057        108.5000
 3627.5000          2.2773         48.6875          0.2988        108.7500
 3627.9998          2.2754         49.2500          0.3013        107.3750
 3628.5000          2.2598         48.0625          0.3032        108.0000
 3628.9998          2.2480         49.9062          0.2959        106.0000
 3629.5000          2.2344         50.2188          0.3037        106.1250
 3629.9998          2.2285         54.7188          0.2930        108.9375
 3630.5000          2.2461         58.0938          0.3096        110.9375
 3631.0000          2.2695         61.1250          0.3472        116.6875
 3631.5000          2.2832         64.3750          0.3750        124.0000
 3632.0000          2.2656         68.0000          0.3936        128.2500
 3632.5002          2.2520         71.6875          0.4048        131.5000
 3633.0000          2.2441         70.1875          0.4287        133.5000
 3633.5002          2.2441         66.3750          0.4229        130.6250
 3634.0000          2.2520         61.1562          0.3892        125.5625
 3634.4998          2.2793         59.7812          0.3521        118.8750
 3635.0000          2.2871         61.1875          0.3447        111.3125
 3635.4998          2.2891         63.4688          0.3433        109.6250
 3636.0000          2.2773         64.7500          0.3301        110.0000
 3636.4998          2.2910         67.5625          0.3413        111.7500
 3637.0000          2.2910         72.6250          0.3418        116.0625
 3637.5000          2.2891         78.0000          0.3862        119.4375
 3638.0000          2.2754         76.3750          0.3887        123.3125
 3638.5000          2.2734         77.1250          0.3911        123.5000
 3639.0002          2.2773         74.5000          0.3765        124.3125
 3639.5000          2.2773         75.1250          0.3726        123.5625
 3640.0002          2.2793         72.5625          0.3726        123.3125
 3640.5000          2.2715         72.8750          0.3765        122.5625
 3640.9998          2.2676         70.0000          0.3774        122.0625
 3641.5000          2.2656         69.9375          0.3799        122.8750
 3641.9998          2.2715         66.7500          0.3828        123.6250
 3642.5000          2.2812         68.1250          0.3945        124.4375
 3642.9998          2.2852         67.8750          0.4087        125.5000
 3643.5000          2.2852         69.0625          0.4028        125.0625
 3644.0000          2.2695         68.3125          0.3945        124.6250
 3644.5000          2.2617         66.3125          0.3716        124.7500
 3645.0000          2.2617         67.4375          0.3731        122.1250
 3645.5002          2.2773         69.0625          0.3731        121.3750
 3646.0000          2.2852         69.3750          0.3877        121.5000
 3646.5002          2.2773         68.8750          0.4028        121.5000
 3647.0000          2.2461         69.5625          0.4160        126.0000
 3647.4998          2.2246         71.3750          0.4097        131.5000
 3648.0000          2.2227         72.6875          0.4243        133.7500
 3648.4998          2.2363         70.5625          0.4258        136.2500
 3649.0000          2.2461         69.8750          0.4517        135.7500
 3649.4998          2.2422         70.5000          0.4658        132.6250
 3650.0000          2.2363         71.0000          0.4551        132.6250
 3650.5000          2.2344         70.9375          0.4541        134.2500
 3651.0002          2.2246         69.9375          0.4126        135.1250
 3651.5000          2.2402         73.0000          0.4097        132.6250
 3652.0002          2.2734         69.4375          0.3867        126.8750
 3652.5000          2.3203         66.1875          0.3740        119.0625
