~VERSION INFORMATION
 VERS.                          2.0   : CWLS LOG ASCII STANDARD - VERSION 2.0
 WRAP.                          NO    : ONE LINE PER DEPTH STEP
#
~Well Information Section
#MNEM     .UNIT     DATA                DESCRIPTION
#-----    -----     --------            --------------
 STRT     .F        2155.0000           : START DEPTH
 STOP     .F        7672.0000           : END DEPTH
 STEP     .F        0.0000              : INCREMENT DEPTH
 NULL     .         -999.2500           : NULL VALUE
 COMP     .                              :
 WELL     .         WELL-2              : WELL NAME
 EKB      .F        73.0000             : KELLY BUSHING ELEVATION
 EGL      .F        0.0000              : GROUND LEVEL ELEVATION
 EPD      .F        0.0000              : PERMANENT DATUM ELEVATION
 FLD      .                              :
 LOC      . X = 246467.5900 Y = 8349201.3500: WELL LOCATION
 PROV     .                              :
 SRVC     .                              :
 PROV     .                              :
 DATE     .                              :
 API      .                              :
#
~Curve Information Section
#MNEM     .UNIT               Curve #DESCRIPTION
#-----    -----               ----   --------------
 DEPTH    .F                  : 1     Name = Domain Curve - Type = DEPTH
 RHOB     .g/cc               : 2     Name = Density - Type = Density
 GR       .API                : 3     Name = Gamma Ray - Type = Gamma Ray
 NPHI_LS  .fraction           : 4     Name = NPHI - Type = Porosity
 DT       .us/ft              : 5     Name = P-wave - Type = P-wave
~A (ASCII LOG DATA)
# ...
 4723.0000          2.3496         69.8750          0.3823        114.6250
 4723.5000          2.3379         70.8750          0.3716        114.0625
 4724.0000          2.3418         71.4375          0.3682        113.9375
 4724.5000          2.3555         71.6250          0.3740        113.8750
 4725.0000          2.3672         70.7500          0.3755        113.1875
 4725.5000          2.3438         71.5000          0.3794        113.4375
 4726.0000          2.3613         69.8125          0.3838        114.3125
 4726.5000          2.3652         74.0625          0.3843        115.0625
 4727.0000          2.3516         74.6250          0.3638        114.5625
 4727.5000          2.3477         75.7500          0.3711        115.7500
 4728.0000          2.3340         73.0625          0.3652        115.1250
 4728.5000          2.3672         70.8750          0.3701        112.7500
 4729.0000          2.3750         68.3750          0.3682        112.3750
 4729.5000          2.3906         65.1250          0.3789        111.8750
 4730.0000          2.3730         66.8750          0.3711        110.0625
 4730.5000          2.3594         69.4375          0.3691        109.4375
 4731.0000          2.3496         70.3125          0.3638        110.3750
 4731.5000          2.3730         73.6250          0.3804        109.3125
 4732.0000          2.3711         74.7500          0.3628        111.3750
 4732.5000          2.3672         76.8125          0.3731        111.4375
 4733.0000          2.3477         72.1250          0.3657        112.6875
 4733.5000          2.3398         68.6250          0.3814        114.0000
 4734.0000          2.3398         67.0625          0.3853        111.8750
 4734.5000          2.3418         74.2500          0.3686        110.6875
 4735.0000          2.3398         76.3125          0.3735        110.7500
 4735.5000          2.3223         77.0625          0.3511        112.2500
 4736.0000          2.3027         69.5000          0.3623        113.1250
 4736.5000          2.3027         71.6875          0.3525        113.7500
 4737.0000          2.3008         69.0625          0.3506        112.8750
 4737.5000          2.2988         72.0000          0.3423        113.5000
 4738.0000          2.2930         67.9375          0.3462        114.7500
 4738.5000          2.3008         70.8750          0.3618        115.2500
 4739.0000          2.3223         70.9375          0.3677        117.0000
 4739.5000          2.3184         73.1250          0.3633        119.5000
 4740.0000          2.3047         70.8750          0.3760        119.3750
 4740.5000          2.2852         71.0625          0.3940        119.5000
 4741.0000          2.2988         67.8750          0.4048        118.5000
 4741.5000          2.3164         65.9375          0.3862        117.1875
 4742.0000          2.3398         64.0625          0.3765        115.9375
 4742.5000          2.3359         63.6562          0.3696        115.5625
 4743.0000          2.3457         65.7500          0.3784        111.2500
 4743.5000          2.3555         63.9375          0.3745        109.1250
 4744.0000          2.3457         64.7500          0.3823        110.8125
 4744.5000          2.3145         62.5625          0.3794        111.2500
 4745.0000          2.2910         61.6875          0.3789        108.1875
 4745.5000          2.3320         59.2188          0.3633        104.4375
 4746.0000          2.3535         56.5000          0.3608        101.0000
 4746.5000          2.3730         55.4375          0.3364         94.6250
 4747.0000          2.3633         56.9375          0.3281         95.8750
 4747.5000          2.3848         62.8125          0.3262         96.1875
 4748.0000          2.3770         63.9062          0.3481         99.3750
 4748.5000          2.3750         64.0000          0.3721        108.1875
 4749.0000          2.3770         60.5938          0.3784        106.1875
 4749.5000          2.3750         60.6562          0.3706        107.1250
 4750.0000          2.3691         60.5000          0.3672        107.0000
 4750.5000          2.3496         61.5000          0.3579        109.5000
 4751.0000          2.3574         61.8750          0.3765        108.2500
 4751.5000          2.3398         61.4375          0.3848        107.8750
 4752.0000          2.3594         61.5938          0.3906        107.9375
 4752.5000          2.3438         63.0312          0.4009        109.1875
 4753.0000          2.3516         63.7500          0.3926        108.4375
 4753.5000          2.3418         61.3438          0.4019        106.8750
 4754.0000          2.3301         61.8750          0.3950        106.3750
 4754.5000          2.3320         63.4688          0.3882        100.0000
 4755.0000          2.3242         65.1875          0.3955         94.0625
 4755.5000          2.3496         61.5312          0.3564         81.3750
 4756.0000          2.3516         59.4062          0.3540         77.3125
 4756.5000          2.3555         59.8750          0.3267         72.8750
 4757.0000          2.3164         63.1875          0.3525         79.5000
 4757.5000          2.3125         69.5000          0.3599         88.3125
 4758.0000          2.3164         72.1875          0.3686         97.1875
 4758.5000          2.3477         72.8750          0.3677        101.0000
 4759.0000          2.3574         68.6250          0.3628        107.2500
 4759.5000          2.3516         66.3125          0.3521        108.6250
 4760.0000          2.3633         65.8125          0.3481        108.5625
 4760.5000          2.3516         65.8750          0.3594        109.5625
 4761.0000          2.3555         68.6250          0.3613        109.0625
 4761.5000          2.3359         68.8750          0.3652        111.1875
 4762.0000          2.3379         70.0000          0.3613        111.4375
 4762.5000          2.3535         66.8750          0.3833        112.3750
 4763.0000          2.3574         67.9375          0.3911        111.7500
 4763.5000          2.3633         66.3750          0.3745        113.3125
 4764.0000          2.3438         69.2500          0.3799        113.5625
 4764.5000          2.3613         65.2500          0.3779        113.1875
 4765.0000          2.3574         63.5312          0.3931        113.8125
 4765.5000          2.3730         62.8438          0.3706        111.6875
 4766.0000          2.3730         67.6250          0.3604        111.3125
 4766.5000          2.3867         72.5625          0.3447        110.5000
 4767.0000          2.3906         72.8125          0.3472        109.8750
 4767.5000          2.3809         71.1875          0.3521        109.8125
 4768.0000          2.3809         71.4375          0.3540        109.6875
 4768.5000          2.3730         74.6250          0.3545        109.8125
 4769.0000          2.3730         74.8125          0.3657        109.5625
 4769.5000          2.3672         71.2500          0.3838        109.4375
 4770.0000          2.3887         68.1250          0.3716        108.9375
 4770.5000          2.4043         66.1875          0.3726        108.2500
 4771.0000          2.4062         65.5000          0.3731        108.1250
 4771.5000          2.3809         64.3125          0.3818        107.1250
 4772.0000          2.3574         67.1250          0.3769        105.3125
 4772.5000          2.3691         66.0000          0.3686        103.8750
 4773.0000          2.3848         63.4062          0.3594        101.5625
 4773.5000          2.3906         57.7500          0.3252        101.4375
 4774.0000          2.3750         54.9688          0.3208         99.4375
 4774.5000          2.3418         53.5625          0.3320         96.9375
 4775.0000          2.3242         48.5625          0.3623         89.8125
 4775.5000          2.3242         44.1875          0.3408         83.7500
 4776.0000          2.4062         37.5312          0.2876         79.6250
