~VERSION INFORMATION
 VERS.                          2.0   : CWLS LOG ASCII STANDARD - VERSION 2.0
 WRAP.                          NO    : ONE LINE PER DEPTH STEP
#
~Well Information Section
#MNEM     .UNIT     DATA                DESCRIPTION
#-----    -----     --------            --------------
 STRT     .F        2155.0000           : START DEPTH
 STOP     .F        7672.0000           : END DEPTH
 STEP     .F        0.0000              : INCREMENT DEPTH
 NULL     .         -999.2500           : NULL VALUE
 COMP     .                              :
 WELL     .         WELL-2              : WELL NAME
 EKB      .F        73.0000             : KELLY BUSHING ELEVATION
 EGL      .F        0.0000              : GROUND LEVEL ELEVATION
 EPD      .F        0.0000              : PERMANENT DATUM ELEVATION
 FLD      .                              :
 LOC      . X = 246467.5900 Y = 8349201.3500: WELL LOCATION
 PROV     .                              :
 SRVC     .                              :
 PROV     .                              :
 DATE     .                              :
 API      .                              :
#
~Curve Information Section
#MNEM     .UNIT               Curve #DESCRIPTION
#-----    -----               ----   --------------
 DEPTH    .F                  : 1     Name = Domain Curve - Type = DEPTH
 RHOB     .g/cc               : 2     Name = Density - Type = Density
 GR       .API                : 3     Name = Gamma Ray - Type = Gamma Ray
 NPHI_LS  .fraction           : 4     Name = NPHI - Type = Porosity
 DT       .us/ft              : 5     Name = P-wave - Type = P-wave
~A (ASCII LOG DATA)
# ...
 7611.9995          2.4336         64.9375          0.2607         81.0625
 7612.5000          2.4512         65.6875          0.2695         78.6250
 7613.0000          2.4258         68.0625          0.2754         79.6250
 7613.5000          2.4160         66.7500          0.2710         79.6875
 7613.9995          2.4219         68.8125          0.2617         80.0625
 7614.5005          2.4434         70.0625          0.2529         82.5625
 7615.0000          2.4434         71.5000          0.2295         82.6250
 7615.5000          2.4258         67.0000          0.2153         80.7500
 7615.9995          2.4043         60.8750          0.1982         78.5000
 7616.5005          2.3965         55.6875          0.1929         75.3125
 7617.0000          2.4277         56.2188          0.1958         73.0000
 7617.5000          2.4531         59.9688          0.1958         71.8125
 7618.0000          2.5176         66.6875          0.2012         72.5625
 7618.4995          2.4941         71.7500          0.2095         73.6250
 7619.0000          2.4902         73.3125          0.2271         74.3750
 7619.5000          2.3887         73.1875          0.2441         74.8125
 7620.0000          2.3984         70.3125          0.2490         77.0000
 7620.4995          2.3906         69.7500          0.2539         77.7500
 7621.0005          2.4336         66.8125          0.2412         79.4375
 7621.5000          2.4492         64.2500          0.2246         80.2500
 7622.0000          2.4824         63.1875          0.2129         77.3125
 7622.4995          2.5234         63.6875          0.2144         74.0000
 7623.0005          2.5449         63.3125          0.2227         71.7500
 7623.5000          2.5469         61.9375          0.2246         68.7500
 7624.0000          2.5488         60.6875          0.2139         68.6250
 7624.5000          2.5469         62.0625          0.2134         69.1875
 7624.9995          2.5469         61.3125          0.2144         69.8750
 7625.5000          2.5371         63.1875          0.2188       -999.2500
 7626.0000          2.5352         61.7500          0.2124       -999.2500
 7626.5000          2.5488         61.5625          0.2051       -999.2500
 7626.9995          2.5645         58.5938          0.2002       -999.2500
 7627.5005          2.5684         57.2188          0.1958       -999.2500
 7628.0000          2.5605         55.7812          0.1924       -999.2500
 7628.5000          2.5605         55.4375          0.1851       -999.2500
 7628.9995          2.5762         57.1562          0.1885       -999.2500
 7629.5005          2.5801         60.2812          0.1894       -999.2500
 7630.0000          2.5977         59.8125          0.1890       -999.2500
 7630.5000          2.6113         57.1875          0.1787       -999.2500
 7631.0000          2.6172         56.7500          0.1690       -999.2500
 7631.4995          2.6289         58.9375          0.1660       -999.2500
 7632.0000          2.6055         62.5938          0.1694       -999.2500
 7632.5000          2.6445         61.0000          0.1777       -999.2500
 7633.0000          2.6055         62.0000          0.1787       -999.2500
 7633.4995          2.6406         62.0938          0.1733       -999.2500
 7634.0005          2.5996         61.7812          0.1670       -999.2500
 7634.5000          2.6309         59.2188          0.1597       -999.2500
 7635.0000          2.6113         56.4688          0.1528       -999.2500
 7635.4995          2.6250         53.0938          0.1431       -999.2500
 7636.0005          2.6250         53.9375          0.1372       -999.2500
 7636.5000          2.6387         50.5000          0.1353       -999.2500
 7637.0000          2.6562         55.0938          0.1299       -999.2500
 7637.5000          2.6641         56.4375          0.1313       -999.2500
 7637.9995          2.6504         63.7500          0.1401       -999.2500
 7638.5000          2.6367         66.0625          0.1514       -999.2500
 7639.0000          2.6270         66.6875          0.1572       -999.2500
 7639.5000          2.6191         62.7812          0.1460       -999.2500
 7639.9995          2.6211         53.6875          0.1377       -999.2500
 7640.5005          2.6348         48.2500          0.1284       -999.2500
 7641.0000          2.6426         45.6250          0.1323       -999.2500
 7641.5000          2.6328         48.7188          0.1323       -999.2500
 7641.9995          2.6211         51.1250          0.1284       -999.2500
 7642.5005          2.6328         51.1875          0.1191       -999.2500
 7643.0000          2.6289         53.5000          0.1201       -999.2500
 7643.5000          2.6289         53.1562          0.1226       -999.2500
 7644.0000          2.6172         57.3438          0.1318       -999.2500
 7644.4995          2.6270         60.5938          0.1348       -999.2500
 7645.0000          2.6270         63.5000          0.1445       -999.2500
 7645.5000          2.6289         63.7188          0.1406       -999.2500
 7646.0000          2.6133         63.0000          0.1460       -999.2500
 7646.4995          2.6172         63.0312          0.1509       -999.2500
 7647.0005          2.6426         64.3125          0.1533       -999.2500
 7647.5000          2.6387         61.2188          0.1504       -999.2500
 7648.0000          2.6562         57.1250          0.1494       -999.2500
 7648.4995          2.6621         52.7188          0.1528       -999.2500
 7649.0005          2.6621         53.6875          0.1558       -999.2500
 7649.5000          2.6426         54.9375          0.1489       -999.2500
 7650.0000          2.6289         54.9062          0.1406       -999.2500
 7650.5000          2.6445         54.4375          0.1299       -999.2500
 7650.9995          2.6426         55.4062          0.1191       -999.2500
 7651.5000          2.6543         55.2188          0.1069       -999.2500
 7652.0000          2.6484         53.5938          0.1025       -999.2500
 7652.5000          2.6406         53.4688          0.1064       -999.2500
 7652.9995          2.6367         53.6250          0.1196       -999.2500
 7653.5005          2.6309         54.6562          0.1382       -999.2500
 7654.0000          2.6250         56.2188          0.1450       -999.2500
 7654.5000          2.5996         55.0625          0.1387       -999.2500
 7654.9995          2.5645         56.6875          0.1348       -999.2500
 7655.5005          2.5898         53.0625          0.1431       -999.2500
 7656.0000          2.5938         53.5000          0.1479       -999.2500
 7656.5000          2.6289         52.4688          0.1489       -999.2500
 7657.0000          2.6289         55.6562          0.1499       -999.2500
 7657.4995          2.6641         57.6562          0.1465       -999.2500
 7658.0000          2.6855       -999.2500          0.1460       -999.2500
 7658.5000          2.6895       -999.2500          0.1426       -999.2500
 7659.0000          2.6680       -999.2500          0.1475       -999.2500
 7659.4995          2.6484       -999.2500          0.1499       -999.2500
 7660.0005          2.6094       -999.2500          0.1582       -999.2500
 7660.5000          2.6367       -999.2500          0.1602       -999.2500
 7661.0000          2.6660       -999.2500       -999.2500       -999.2500
 7661.4995          2.6816       -999.2500       -999.2500       -999.2500
 7662.0005          2.6484       -999.2500       -999.2500       -999.2500
 7662.5000          2.6445       -999.2500       -999.2500       -999.2500
 7663.0000          2.6387       -999.2500       -999.2500       -999.2500
 7663.5000          2.6621       -999.2500       -999.2500       -999.2500
 7663.9995          2.6113       -999.2500       -999.2500       -999.2500
 7664.5000          2.6230       -999.2500       -999.2500       -999.2500
 7665.0000          2.6328       -999.2500       -999.2500       -999.2500
