~VERSION INFORMATION
 VERS.                          2.0   : CWLS LOG ASCII STANDARD - VERSION 2.0
 WRAP.                          NO    : ONE LINE PER DEPTH STEP
#
~Well Information Section
#MNEM     .UNIT     DATA                DESCRIPTION
#-----    -----     --------            --------------
 STRT     .F        2155.0000           : START DEPTH
 STOP     .F        7672.0000           : END DEPTH
 STEP     .F        0.0000              : INCREMENT DEPTH
 NULL     .         -999.2500           : NULL VALUE
 COMP     .                              :
 WELL     .         WELL-2              : WELL NAME
 EKB      .F        73.0000             : KELLY BUSHING ELEVATION
 EGL      .F        0.0000              : GROUND LEVEL ELEVATION
 EPD      .F        0.0000              : PERMANENT DATUM ELEVATION
 FLD      .                              :
 LOC      . X = 246467.5900 Y = 8349201.3500: WELL LOCATION
 PROV     .                              :
 SRVC     .                              :
 PROV     .                              :
 DATE     .                              :
 API      .                              :
#
~Curve Information Section
#MNEM     .UNIT               Curve #DESCRIPTION
#-----    -----               ----   --------------
 DEPTH    .F                  : 1     Name = Domain Curve - Type = DEPTH
 RHOB     .g/cc               : 2     Name = Density - Type = Density
 GR       .API                : 3     Name = Gamma Ray - Type = Gamma Ray
 NPHI_LS  .fraction           : 4     Name = NPHI - Type = Porosity
 DT       .us/ft              : 5     Name = P-wave - Type = P-wave
~A (ASCII LOG DATA)
# ...
 2904.0000          2.1641         60.0312          0.4385        146.3750
 2904.5000          2.1699         58.8438          0.4316        146.0000
 2905.0000          2.1758         62.4375          0.4287        146.1250
 2905.5000          2.1523         63.5938          0.4072        145.6250
 2906.0000          2.1562         66.6250          0.4126        145.1250
 2906.5000          2.1562         65.0000          0.4014        146.8750
 2907.0000          2.1680         63.3438          0.4038        146.7500
 2907.5000          2.1660         60.7188          0.3950        146.3750
 2908.0000          2.1699         59.6875          0.3984        146.7500
 2908.5000          2.1621         59.7188          0.4121        147.2500
 2909.0000          2.1582         59.8750          0.4165        146.0000
 2909.5000          2.1523         63.2188          0.4439        146.1250
 2910.0000          2.1426         64.7500          0.4512        145.7500
 2910.5000          2.1504         66.7500          0.4565        139.0000
 2911.0000          2.1445         61.6250          0.4453        140.7500
 2911.5000          2.1562         59.5625          0.4443        140.2500
 2912.0000          2.1465         58.8438          0.4336        142.2500
 2912.5000          2.1602         65.8125          0.4409        144.8750
 2913.0000          2.1504         70.0625          0.4414        145.0000
 2913.5000          2.1621         70.2500          0.4629        146.5000
 2914.0000          2.1621         67.5625          0.4390        145.5000
 2914.5000          2.1719         65.9375          0.4409        146.3750
 2915.0000          2.1582         66.1250          0.4307        147.2500
 2915.5000          2.1445         63.4375          0.4541        148.0000
 2916.0000          2.1328         59.6562          0.4541        151.8750
 2916.5000          2.1309         57.2188          0.4424        154.1250
 2917.0000          2.1426         61.0000          0.4180        155.0000
 2917.5000          2.1406         63.7500          0.4097        154.3750
 2918.0000          2.1445         65.7500          0.4189        154.3750
 2918.5000          2.1328         63.1250          0.4351        155.1250
 2919.0000          2.1328         64.0625          0.4331        155.3750
 2919.5000          2.1289         62.4062          0.4180        155.3750
 2920.0000          2.1406         61.5938          0.4209        155.0000
 2920.5000          2.1387         62.0312          0.4292        154.5000
 2921.0000          2.1387         65.5000          0.4507        154.7500
 2921.5000          2.1348         65.6875          0.4595        154.1250
 2922.0000          2.1348         64.6875          0.4551        152.8750
 2922.5000          2.1328         64.0625          0.4429        152.0000
 2923.0000          2.1348         66.7500          0.4272        152.2500
 2923.5000          2.1387         67.6250          0.4219        152.7500
 2924.0000          2.1406         65.8750          0.4194        152.7500
 2924.5000          2.1426         65.3750          0.4272        152.6250
 2925.0000          2.1387         67.1250          0.4233        152.8750
 2925.5000          2.1367         67.4375          0.4229        152.8750
 2926.0000          2.1387         68.3750          0.4160        153.1250
 2926.5000          2.1445         67.9375          0.4394        153.1250
 2927.0000          2.1484         66.7500          0.4673        153.2500
 2927.5000          2.1484         66.0000          0.4541        153.7500
 2928.0000          2.1445         64.0625          0.4370        153.2500
 2928.5000          2.1504         64.8750          0.4243        152.0000
 2929.0000          2.1426         64.9375          0.4302        151.8750
 2929.5000          2.1387         64.4375          0.4502        152.0000
 2930.0000          2.1230         63.7500          0.4644        152.5000
 2930.5000          2.1211         60.7500          0.4556        155.0000
 2931.0000          2.1230         61.4688          0.4658        155.7500
 2931.5000          2.1230         63.9062          0.4419        156.1250
 2932.0000          2.1172         65.1250          0.4497        155.2500
 2932.5000          2.1191         67.6250          0.4243        154.2500
 2933.0000          2.1152         65.0000          0.4272        154.0000
 2933.5000          2.1211         67.9375          0.4409        153.3750
 2934.0000          2.1289         66.1250          0.4463        152.6250
 2934.5000          2.1465         69.7500          0.4507        153.1250
 2935.0000          2.1562         66.5000          0.4365        152.1250
 2935.5000          2.1543         65.8125          0.4336        151.0000
 2936.0000          2.1504         64.0625          0.4253        150.7500
 2936.5000          2.1426         66.1875          0.4243        151.0000
 2937.0000          2.1406         69.2500          0.4238        151.2500
 2937.5000          2.1426         68.7500          0.4448        151.5000
 2938.0000          2.1445         69.5625          0.4453        151.8750
 2938.5000          2.1406         66.8750          0.4429        151.6250
 2939.0000          2.1406         68.0000          0.4238        151.6250
 2939.5000          2.1406         67.7500          0.4390        152.8750
 2940.0000          2.1465         66.5000          0.4414        153.7500
 2940.5000          2.1367         66.8750          0.4439        153.8750
 2941.0000          2.1445         67.0625          0.4541        153.7500
 2941.5000          2.1426         69.6250          0.4336        152.7500
 2942.0000          2.1445         67.4375          0.4439        153.0000
 2942.5000          2.1367         64.0000          0.4316        153.5000
 2943.0000          2.1289         64.3750          0.4580        154.0000
 2943.5000          2.1367         67.0625          0.4512        154.8750
 2944.0000          2.1230         69.8125          0.4414        154.6250
 2944.5000          2.1270         67.5000          0.4497        154.1250
 2945.0000          2.1250         66.1875          0.4468        153.0000
 2945.5000          2.1328         66.5625          0.4492        152.2500
 2946.0000          2.1387         67.5625          0.4463        152.2500
 2946.5000          2.1387         66.3750          0.4478        149.6250
 2947.0000          2.1426         66.0625          0.4517        149.6250
 2947.5000          2.1426         62.8750          0.4326        151.8750
 2948.0000          2.1328         64.3125          0.4233        152.0000
 2948.5000          2.1230         61.3125          0.4356        152.7500
 2949.0000          2.1406         57.6875          0.4443        148.5000
 2949.5000          2.2109         49.7500          0.4097        135.3750
 2950.0000          2.3027         42.5938          0.3369        118.8750
 2950.5000          2.3008         42.0312          0.3237        112.0000
 2951.0000          2.2227         45.6875          0.3662        115.6250
 2951.5000          2.1426         53.6250          0.4238        129.7500
 2952.0000          2.1250         60.7812          0.4482        146.5000
 2952.5000          2.1230         65.1250          0.4575        153.1250
 2953.0000          2.1289         67.0625          0.4595        156.0000
 2953.5000          2.1270         66.3750          0.4565        155.2500
 2954.0000          2.1191         63.3750          0.4424        154.5000
 2954.5000          2.1172         61.9688          0.4194        155.0000
 2955.0000          2.1172         63.9375          0.4038        154.8750
 2955.5000          2.1172         64.6250          0.4360        154.7500
 2956.0000          2.1133         64.8125          0.4800        155.2500
 2956.5000          2.1055         62.4375          0.5029        155.6250
 2957.0000          2.0977         66.3750          0.5068        156.2500
