~VERSION INFORMATION
 VERS.                          2.0   : CWLS LOG ASCII STANDARD - VERSION 2.0
 WRAP.                          NO    : ONE LINE PER DEPTH STEP
#
~Well Information Section
#MNEM     .UNIT     DATA                DESCRIPTION
#-----    -----     --------            --------------
 STRT     .F        2155.0000           : START DEPTH
 STOP     .F        7672.0000           : END DEPTH
 STEP     .F        0.0000              : INCREMENT DEPTH
 NULL     .         -999.2500           : NULL VALUE
 COMP     .                              :
 WELL     .         WELL-2              : WELL NAME
 EKB      .F        73.0000             : KELLY BUSHING ELEVATION
 EGL      .F        0.0000              : GROUND LEVEL ELEVATION
 EPD      .F        0.0000              : PERMANENT DATUM ELEVATION
 FLD      .                              :
 LOC      . X = 246467.5900 Y = 8349201.3500: WELL LOCATION
 PROV     .                              :
 SRVC     .                              :
 PROV     .                              :
 DATE     .                              :
 API      .                              :
#
~Curve Information Section
#MNEM     .UNIT               Curve #DESCRIPTION
#-----    -----               ----   --------------
 DEPTH    .F                  : 1     Name = Domain Curve - Type = DEPTH
 RHOB     .g/cc               : 2     Name = Density - Type = Density
 GR       .API                : 3     Name = Gamma Ray - Type = Gamma Ray
 NPHI_LS  .fraction           : 4     Name = NPHI - Type = Porosity
 DT       .us/ft              : 5     Name = P-wave - Type = P-wave
~A (ASCII LOG DATA)
# ...
 6167.5000          2.3789         28.3438          0.1675         76.3125
 6168.0000          2.3770         29.4375          0.1733         76.5625
 6168.5000          2.3691         30.2344          0.1728         76.6875
 6169.0000          2.3652         29.6562          0.1728         76.8125
 6169.5000          2.3633         30.3281          0.1611         76.5625
 6170.0000          2.3789         31.5156          0.1460         74.0625
 6170.5000          2.4121         34.1875          0.1172         72.2500
 6171.0000          2.4512         34.5000          0.0835         69.6250
 6171.5000          2.5156         38.0000          0.0420         65.8750
 6172.0000          2.5820         37.9688          0.0151         61.5625
 6172.5000          2.6543         42.0938          0.0054         55.2500
 6173.0000          2.6875         42.4062          0.0010         52.1250
 6173.5000          2.6875         42.8750          0.0000         48.9375
 6174.0000          2.6875         39.0938          0.0005         49.5000
 6174.5000          2.6797         32.3125          0.0024         50.4375
 6175.0000          2.6680         28.1875          0.0063         49.5625
 6175.5000          2.6426         25.2031          0.0171         51.3750
 6176.0000          2.5938         24.7969          0.0459         54.4375
 6176.5000          2.5293         22.7656          0.0859         58.3125
 6177.0000          2.4707         19.4062          0.1138         63.9375
 6177.5000          2.4453         17.1094          0.1318         68.1250
 6178.0000          2.4434         17.8438          0.1372         69.8750
 6178.5000          2.4531         18.4688          0.1377         71.5625
 6179.0000          2.4551         20.8281          0.1313         71.4375
 6179.5000          2.4648         20.1250          0.1167         71.0000
 6180.0000          2.4863         21.4844          0.0977         70.1250
 6180.5000          2.5117         22.4375          0.0884         68.0000
 6181.0000          2.5254         24.4688          0.0830         66.3125
 6181.5000          2.5352         27.1406          0.0815         64.3750
 6182.0000          2.5410         26.1406          0.0703         62.5000
 6182.5000          2.5566         27.0781          0.0615         61.2500
 6183.0000          2.5645         26.4531          0.0532         60.0000
 6183.5000          2.5781         27.5469          0.0508         58.8750
 6184.0000          2.5801         27.5625          0.0469         58.2500
 6184.5000          2.5762         26.5000          0.0513         58.0000
 6185.0000          2.5605         27.4375          0.0557         58.3750
 6185.5000          2.5547         25.4688          0.0571         58.6250
 6186.0000          2.5586         27.1250          0.0498         58.7500
 6186.5000          2.5840         30.4375          0.0454         59.1250
 6187.0000          2.6094         40.5625          0.0405         58.4375
 6187.5000          2.6367         44.4062          0.0337         58.5625
 6188.0000          2.6445         46.5312          0.0220         57.7500
 6188.5000          2.6426         42.1875          0.0151         57.3125
 6189.0000          2.6367         39.7500          0.0127         55.4375
 6189.5000          2.6641         34.3438          0.0137         51.1250
 6190.0000          2.6602         29.9219          0.0156         52.9375
 6190.5000          2.6797         25.8125          0.0171         49.9375
 6191.0000          2.6602         24.0469          0.0156         51.1250
 6191.5000          2.6719         22.4219          0.0147         54.5625
 6192.0000          2.6699         22.0938          0.0147         53.5625
 6192.5000          2.6738         20.8438          0.0151         55.9375
 6193.0000          2.6738         19.1406          0.0151         55.5000
 6193.5000          2.6719         19.1250          0.0142         55.5000
 6194.0000          2.6738         18.0625          0.0132         55.9375
 6194.5000          2.6699         18.0156          0.0161         56.1250
 6195.0000          2.6738         14.9375          0.0171         56.6875
 6195.5000          2.6719         14.2656          0.0185         56.6250
 6196.0000          2.6738         13.2969          0.0166         56.6875
 6196.5000          2.6836         14.0469          0.0147         56.1250
 6197.0000          2.6895         12.7578          0.0137         56.1250
 6197.5000          2.6875         13.4219          0.0132         56.0625
 6198.0000          2.6875         12.1016          0.0122         55.3125
 6198.5000          2.6797         14.4297          0.0122         55.0625
 6199.0000          2.6914         14.0312          0.0117         55.0625
 6199.5000          2.6836         13.9922          0.0122         55.1250
 6200.0000          2.6914         12.9531          0.0122         55.0000
 6200.5000          2.6816         13.6875          0.0127         55.2500
 6201.0000          2.6855         14.3672          0.0132         54.8750
 6201.5000          2.6738         13.0391          0.0112         55.2500
 6202.0000          2.6777         12.0547          0.0098         55.0000
 6202.5000          2.6660         12.0547          0.0093         55.2500
 6203.0000          2.6738         12.6641          0.0088         55.0000
 6203.5000          2.6797         12.2969          0.0093         54.5625
 6204.0000          2.6875         11.9531          0.0083         55.1875
 6204.5000          2.6953         11.6641          0.0088         54.0625
 6205.0000          2.6934         11.6562          0.0068         54.1250
 6205.5000          2.6914         11.6641          0.0063         54.1875
 6206.0000          2.6836         11.0312          0.0054         54.0625
 6206.5000          2.6875         11.4219          0.0063         54.0000
 6207.0000          2.6855         11.0859          0.0073         54.2500
 6207.5000          2.6836         11.3594          0.0073         54.1250
 6208.0000          2.6777         10.6250          0.0063         54.8125
 6208.5000          2.6777         10.2812          0.0059         54.6875
 6209.0000          2.6719         10.9766          0.0059         54.3125
 6209.5000          2.6660         11.3125          0.0054         54.4375
 6210.0000          2.6602         10.9688          0.0049         54.1875
 6210.5000          2.6582         10.6406          0.0044         54.3750
 6211.0000          2.6621         10.0234          0.0039         54.6875
 6211.5000          2.6797         10.3750          0.0029         54.1250
 6212.0000          2.6934          9.7188          0.0029         54.0000
 6212.5000          2.6934         10.0312          0.0029         53.8125
 6213.0000          2.6816         10.7109          0.0039         53.7500
 6213.5000          2.6738         10.7109          0.0044         54.0000
 6214.0000          2.6719         10.3984          0.0054         53.4375
 6214.5000          2.6719          8.3984          0.0054         53.6875
 6215.0000          2.6719          9.0781          0.0049         54.0625
 6215.5000          2.6855          9.3828          0.0044         53.4375
 6216.0000          2.6875         11.0938          0.0049         53.1875
 6216.5000          2.6934          9.4141          0.0054         52.7500
 6217.0000          2.6777          8.0938          0.0059         52.6875
 6217.5000          2.6738          7.0547          0.0063         52.5625
 6218.0000          2.6641          9.7109          0.0073         53.1875
 6218.5000          2.6621         10.3594          0.0088         53.4375
 6219.0000          2.6602         11.0156          0.0122         54.3125
 6219.5000          2.6602          9.6875          0.0151         54.9375
 6220.0000          2.6484         10.3203          0.0166         55.6875
 6220.5000          2.6445         11.6953          0.0142         55.8125
