~VERSION INFORMATION
 VERS.                          2.0   : CWLS LOG ASCII STANDARD - VERSION 2.0
 WRAP.                          NO    : ONE LINE PER DEPTH STEP
#
~Well Information Section
#MNEM     .UNIT     DATA                DESCRIPTION
#-----    -----     --------            --------------
 STRT     .F        2155.0000           : START DEPTH
 STOP     .F        7672.0000           : END DEPTH
 STEP     .F        0.0000              : INCREMENT DEPTH
 NULL     .         -999.2500           : NULL VALUE
 COMP     .                              :
 WELL     .         WELL-2              : WELL NAME
 EKB      .F        73.0000             : KELLY BUSHING ELEVATION
 EGL      .F        0.0000              : GROUND LEVEL ELEVATION
 EPD      .F        0.0000              : PERMANENT DATUM ELEVATION
 FLD      .                              :
 LOC      . X = 246467.5900 Y = 8349201.3500: WELL LOCATION
 PROV     .                              :
 SRVC     .                              :
 PROV     .                              :
 DATE     .                              :
 API      .                              :
#
~Curve Information Section
#MNEM     .UNIT               Curve #DESCRIPTION
#-----    -----               ----   --------------
 DEPTH    .F                  : 1     Name = Domain Curve - Type = DEPTH
 RHOB     .g/cc               : 2     Name = Density - Type = Density
 GR       .API                : 3     Name = Gamma Ray - Type = Gamma Ray
 NPHI_LS  .fraction           : 4     Name = NPHI - Type = Porosity
 DT       .us/ft              : 5     Name = P-wave - Type = P-wave
~A (ASCII LOG DATA)
 2155.0000          2.4414         34.6250          0.5102       -999.2500
 2155.5000          2.1543         36.0938          0.5337       -999.2500
 2156.0000          2.2188         40.5625          0.5703       -999.2500
 2156.5000          2.0391         45.3438          0.5723       -999.2500
 2157.0000          1.9453         49.4375          0.5210       -999.2500
 2157.5000          1.8467         47.7812          0.4634       -999.2500
 2158.0000          1.8252         46.2812          0.4893       -999.2500
 2158.5000          1.8672         49.4062          0.5127       -999.2500
 2159.0000          1.9229         55.4688          0.5181        165.5000
 2159.5000          1.9541         59.3125          0.4878        164.3750
 2160.0000          1.9482         59.0625          0.4565        169.6250
 2160.5000          1.9414         57.4062          0.4419        169.1250
 2161.0000          1.9443         59.4062          0.4507        170.7500
 2161.5000          1.9512         60.7812          0.4600        169.0000
 2162.0000          1.9551         64.6250          0.4858        168.2500
 2162.5000          1.9521         64.8750          0.4907        168.2500
 2163.0000          1.9541         64.7500          0.4741        167.7500
 2163.5000          1.9531         62.6250          0.4756        168.2500
 2164.0000          1.9629         60.2188          0.4692        169.2500
 2164.5000          1.9619         57.1875          0.4829        169.2500
 2165.0000          1.9580         58.4375          0.4961        169.0000
 2165.5000          1.9531         60.6875          0.4868        168.3750
 2166.0000          1.9619         64.3750          0.5005        167.5000
 2166.5000          1.9756         62.3125          0.4814        167.1250
 2167.0000          1.9814         61.1562          0.4790        167.8750
 2167.5000          1.9697         58.5312          0.4678        168.1250
 2168.0000          1.9619         60.5312          0.4761        168.8750
 2168.5000          1.9551         61.1875          0.4976        169.7500
 2169.0000          1.9551         64.4375          0.5181        169.7500
 2169.5000          1.9551         63.6562          0.5020        169.7500
 2170.0000          1.9580         64.1250          0.5015        169.1250
 2170.5000          1.9590         62.7500          0.4893        169.2500
 2171.0000          1.9629         61.2188          0.4907        169.0000
 2171.5000          1.9668         58.4688          0.4868        169.0000
 2172.0000          1.9697         54.9688          0.4790        168.5000
 2172.5000          1.9688         54.8438          0.4922        168.2500
 2173.0000          1.9697         56.1562          0.4648        168.2500
 2173.5000          1.9668         55.6250          0.4697        168.1250
 2174.0000          1.9551         53.9375          0.4556        168.6250
 2174.5000          1.9512         52.4375          0.4810        168.2500
 2175.0000          1.9551         55.0000          0.4712        168.3750
 2175.5000          1.9668         56.3125          0.4976        168.1250
 2176.0000          1.9678         56.6562          0.4824        168.3750
 2176.5000          1.9658         56.0312          0.4946        168.1250
 2177.0000          1.9648         56.3438          0.4668        167.1250
 2177.5000          1.9697         58.5938          0.4893        165.8750
 2178.0000          1.9766         59.8438          0.4902        165.1250
 2178.5000          1.9688         62.1250          0.5049        164.8750
 2179.0000          1.9648         58.5938          0.4868        165.1250
 2179.5000          1.9609         57.0625          0.4810        165.2500
 2180.0000          1.9678         55.3125          0.4595        165.8750
 2180.5000          1.9648         59.6562          0.4551        165.7500
 2181.0000          1.9600         60.5938          0.4653        166.3750
 2181.5000          1.9541         61.6875          0.4775        166.7500
 2182.0000          1.9512         60.5312          0.4936        168.1250
 2182.5000          1.9697         60.4688          0.4966        167.0000
 2183.0000          2.0098         60.0938          0.4912        165.2500
 2183.5000          2.0332         59.7812          0.4839        165.3750
 2184.0000          2.0117         58.6875          0.4888        166.1250
 2184.5000          1.9551         60.8438          0.4902        168.0000
 2185.0000          1.9229         58.8125          0.4834        170.5000
 2185.5000          1.9053         60.7500          0.4771        172.1250
 2186.0000          1.9121         58.7500          0.4785        170.7500
 2186.5000          1.9268         59.6250          0.4844        169.5000
 2187.0000          1.9443         59.5625          0.5088        168.7500
 2187.5000          1.9482         59.0625          0.4897        168.6250
 2188.0000          1.9443         60.2188          0.4692        167.5000
 2188.5000          1.9414         59.2812          0.4277        167.6250
 2189.0000          1.9395         60.9062          0.4268        167.8750
 2189.5000          1.9404         62.2188          0.4629        168.6250
 2190.0000          1.9307         64.9375          0.4556        170.0000
 2190.5000          1.9385         64.4375          0.4766        170.6250
 2191.0000          1.9414         64.4375          0.4517        171.0000
 2191.5000          1.9619         63.9688          0.4565        170.5000
 2192.0000          1.9551         62.2812          0.4536        170.2500
 2192.5000          1.9590         59.2188          0.4439        170.3750
 2193.0000          1.9404         56.4688          0.4600        171.6250
 2193.5000          1.9443         58.0938          0.4556        171.7500
 2194.0000          1.9414         60.6250          0.4936        171.7500
 2194.5000          1.9678         64.6250          0.4741        170.3750
 2195.0000          1.9932         61.2812          0.4517        169.8750
 2195.5000          2.0195         62.3125          0.4394        169.2500
 2196.0000          2.0293         57.4375          0.4644        168.3750
 2196.5000          2.0156         59.9375          0.4976        168.5000
 2197.0000          2.0098         58.0000          0.4990        167.0000
 2197.5000          2.0215         56.6875          0.4585        165.6250
 2198.0000          2.0391         53.8438          0.4458        167.3750
 2198.5000          2.0215         53.0312          0.4565        167.5000
 2199.0000          1.9766         54.3438          0.4834        169.6250
 2199.5000          1.9443         55.9062          0.4795        172.7500
 2200.0000          1.9385         55.6562          0.4663        174.2500
 2200.5000          1.9316         54.1562          0.4858        174.1250
 2201.0000          1.9336         53.5312          0.4990        174.0000
 2201.5000          1.9180         53.3750          0.5269        174.7500
 2202.0000          1.9199         55.7812          0.5015        176.1250
 2202.5000          1.9199         57.9062          0.4912        176.2500
 2203.0000          1.9346         58.5625          0.4751        175.5000
 2203.5000          1.9346         60.5312          0.4829        175.0000
 2204.0000          1.9414         59.4688          0.4702        174.5000
 2204.5000          1.9385         58.7188          0.4614        173.1250
 2205.0000          1.9414         56.6250          0.4585        171.3750
 2205.5000          1.9189         55.3438          0.4468        171.2500
 2206.0000          1.9082         53.7812          0.4394        170.6250
 2206.5000          1.8887         52.5625          0.4253        171.6250
 2207.0000          1.8838         52.8125          0.4819        171.0000
 2207.5000          1.8545         53.6562          0.5020        171.1250
 2208.0000          1.8516         55.7812          0.5107        171.0000
