~VERSION INFORMATION
 VERS.                          2.0   : CWLS LOG ASCII STANDARD - VERSION 2.0
 WRAP.                          NO    : ONE LINE PER DEPTH STEP
#
~Well Information Section
#MNEM     .UNIT     DATA                DESCRIPTION
#-----    -----     --------            --------------
 STRT     .F        2155.0000           : START DEPTH
 STOP     .F        7672.0000           : END DEPTH
 STEP     .F        0.0000              : INCREMENT DEPTH
 NULL     .         -999.2500           : NULL VALUE
 COMP     .                              :
 WELL     .         WELL-2              : WELL NAME
 EKB      .F        73.0000             : KELLY BUSHING ELEVATION
 EGL      .F        0.0000              : GROUND LEVEL ELEVATION
 EPD      .F        0.0000              : PERMANENT DATUM ELEVATION
 FLD      .                              :
 LOC      . X = 246467.5900 Y = 8349201.3500: WELL LOCATION
 PROV     .                              :
 SRVC     .                              :
 PROV     .                              :
 DATE     .                              :
 API      .                              :
#
~Curve Information Section
#MNEM     .UNIT               Curve #DESCRIPTION
#-----    -----               ----   --------------
 DEPTH    .F                  : 1     Name = Domain Curve - Type = DEPTH
 RHOB     .g/cc               : 2     Name = Density - Type = Density
 GR       .API                : 3     Name = Gamma Ray - Type = Gamma Ray
 NPHI_LS  .fraction           : 4     Name = NPHI - Type = Porosity
 DT       .us/ft              : 5     Name = P-wave - Type = P-wave
~A (ASCII LOG DATA)
# ...
 3225.0000          2.1602         68.5000          0.4224        136.3750
 3225.5000          2.1543         69.8750          0.4058        136.7500
 3226.0000          2.1426         69.2500          0.4077        138.1250
 3226.5000          2.1309         67.5625          0.4253        139.6250
 3227.0000          2.1328         68.2500          0.4375        142.8750
 3227.5000          2.1387         67.6875          0.4814        144.6250
 3228.0000          2.1406         69.0625          0.4810        145.5000
 3228.5000          2.1387         69.4375          0.4805        146.5000
 3229.0000          2.1230         69.5000          0.4604        147.5000
 3229.5000          2.1191         68.3125          0.4570        148.1250
 3230.0000          2.1309         66.1875          0.4722        148.5000
 3230.5000          2.1719         63.1875          0.4775        146.3750
 3231.0000          2.1934         64.8125          0.4912        144.8750
 3231.5000          2.1836         65.9375          0.4766        144.5000
 3232.0000          2.1641         69.8125          0.4619        144.6250
 3232.5000          2.1504         67.3750          0.4282        146.0000
 3233.0000          2.1660         66.6875          0.4302        146.0000
 3233.5000          2.1738         66.2500          0.4150        145.0000
 3234.0000          2.1895         70.6250          0.4346        144.3750
 3234.5000          2.1797         71.6875          0.4272        144.2500
 3235.0000          2.1699         71.3750          0.4473        145.3750
 3235.5000          2.1621         68.1875          0.4497        146.2500
 3236.0000          2.1641         68.8750          0.4439        146.6250
 3236.5000          2.1680         67.5625          0.4351        147.5000
 3237.0000          2.1738         67.1875          0.4263        143.8750
 3237.5000          2.1797         66.1250          0.4116        143.7500
 3238.0000          2.1895         66.3750          0.4058        141.6250
 3238.5000          2.2012         67.5000          0.4170        139.5000
 3239.0000          2.2090         62.3125          0.4394        138.2500
 3239.5000          2.2129         57.2812          0.4272        130.0000
 3240.0000          2.2207         47.8750          0.3799        122.6250
 3240.5000          2.2441         45.8438          0.3140        113.5000
 3241.0000          2.2754         47.0938          0.3037        108.7500
 3241.5000          2.2715         54.0938          0.3369        112.6250
 3242.0000          2.2520         62.3750          0.3999        118.1250
 3242.5000          2.2246         69.6250          0.4316        129.2500
 3243.0000          2.2090         72.8750          0.4356        135.0000
 3243.5000          2.2031         73.3125          0.4399        139.3750
 3244.0000          2.2070         70.5000          0.4487        139.6250
 3244.5000          2.2012         71.2500          0.4551        139.5000
 3245.0000          2.2031         68.4375          0.4419        138.1250
 3245.5000          2.2012         68.9375          0.4297        134.5000
 3246.0000          2.2344         64.9375          0.4209        132.2500
 3246.5000          2.2559         66.3125          0.4116        129.6250
 3247.0000          2.2461         68.8750          0.4019        132.1250
 3247.5000          2.2090         73.0625          0.4077        135.0000
 3248.0000          2.1777         73.4375          0.4028        139.0000
 3248.5000          2.1680         72.7500          0.4019        142.1250
 3249.0000          2.1699         72.8125          0.4121        140.3750
 3249.5000          2.1699         72.7500          0.4272        141.1250
 3250.0000          2.1641         72.9375          0.4277        141.3750
 3250.5000          2.1719         70.8750          0.3979        140.3750
 3251.0000          2.1934         69.2500          0.3970        138.2500
 3251.5000          2.2227         64.9375          0.3814        132.5000
 3252.0000          2.2266         61.7500          0.3872        126.6250
 3252.5000          2.2207         61.1875          0.3823        127.1250
 3253.0000          2.2031         62.5625          0.4136        129.2500
 3253.5000          2.1973         66.0000          0.4307        135.8750
 3254.0000          2.1934         66.5625          0.4419        139.8750
 3254.5000          2.1934         68.0625          0.4375        141.5000
 3255.0000          2.1895         69.8125          0.4268        141.5000
 3255.5000          2.1758         72.3125          0.4248        141.5000
 3256.0000          2.1758         71.7500          0.4219        142.8750
 3256.5000          2.1660         71.8125          0.4302        143.2500
 3257.0000          2.1758         71.1875          0.4375        145.2500
 3257.5000          2.1680         72.1250          0.4370        147.5000
 3258.0000          2.1777         68.5625          0.4390        148.5000
 3258.5000          2.1660         69.1875          0.4380        149.0000
 3259.0000          2.1680         69.0625          0.4561        149.1250
 3259.5000          2.1699         69.9375          0.4600        149.1250
 3260.0000          2.1621         70.7500          0.4985        150.5000
 3260.5000          2.1562         69.6875          0.4902        150.8750
 3261.0000          2.1582         70.0625          0.5034        149.8750
 3261.5000          2.1758         70.5625          0.4746        150.5000
 3262.0000          2.1777         72.9375          0.4775        150.1250
 3262.5000          2.1621         74.0000          0.4590        150.0000
 3263.0000          2.1992         68.7500          0.4414        146.0000
 3263.5000          2.2461         64.8125          0.4063        138.5000
 3264.0000          2.2852         64.4375          0.3589        126.8750
 3264.5000          2.2754         66.6250          0.3159        118.5000
 3265.0000          2.2637         68.6250          0.3281        113.8750
 3265.5000          2.2637         68.0625          0.3491        116.3750
 3266.0000          2.2520         69.9375          0.3960        119.0000
 3266.5000          2.2480         72.5000          0.3979        121.5000
 3267.0000          2.2422         74.3125          0.4102        126.8750
 3267.5000          2.2344         73.3125          0.3774        127.8125
 3268.0000          2.2344         70.6875          0.3604        128.3750
 3268.5000          2.2324         71.8750          0.3584        126.5000
 3269.0000          2.2363         72.1250          0.3599        121.6250
 3269.5000          2.2363         72.7500          0.3823        122.0000
 3270.0000          2.2363         70.6875          0.4043        123.0000
 3270.5000          2.2285         73.2500          0.4268        127.2500
 3271.0000          2.2207         76.5625          0.4277        131.5000
 3271.5000          2.2129         76.5625          0.4170        133.3750
 3272.0000          2.2070         72.6875          0.4287        135.5000
 3272.5000          2.1973         69.1875          0.4233        135.5000
 3273.0000          2.2070         66.2500          0.4165        132.1250
 3273.5000          2.2109         65.1875          0.3936        128.5000
 3274.0000          2.2129         61.6875          0.3667        123.2500
 3274.5000          2.2109         64.0625          0.3647        117.8750
 3275.0000          2.2148         65.5625          0.3516        125.4375
 3275.5000          2.2188         70.1875          0.3916        129.1250
 3276.0000          2.2168         71.5000          0.4019        133.8750
 3276.5000          2.2207         71.6875          0.4307        134.1250
 3277.0000          2.2363         67.6875          0.3936        128.1250
 3277.5000          2.2422         60.5312          0.3569        120.9375
 3278.0000          2.2305         55.6875          0.3159        114.8750
