~VERSION INFORMATION
 VERS.                          2.0   : CWLS LOG ASCII STANDARD - VERSION 2.0
 WRAP.                          NO    : ONE LINE PER DEPTH STEP
#
~Well Information Section
#MNEM     .UNIT     DATA                DESCRIPTION
#-----    -----     --------            --------------
 STRT     .F        2155.0000           : START DEPTH
 STOP     .F        7672.0000           : END DEPTH
 STEP     .F        0.0000              : INCREMENT DEPTH
 NULL     .         -999.2500           : NULL VALUE
 COMP     .                              :
 WELL     .         WELL-2              : WELL NAME
 EKB      .F        73.0000             : KELLY BUSHING ELEVATION
 EGL      .F        0.0000              : GROUND LEVEL ELEVATION
 EPD      .F        0.0000              : PERMANENT DATUM ELEVATION
 FLD      .                              :
 LOC      . X = 246467.5900 Y = 8349201.3500: WELL LOCATION
 PROV     .                              :
 SRVC     .                              :
 PROV     .                              :
 DATE     .                              :
 API      .                              :
#
~Curve Information Section
#MNEM     .UNIT               Curve #DESCRIPTION
#-----    -----               ----   --------------
 DEPTH    .F                  : 1     Name = Domain Curve - Type = DEPTH
 RHOB     .g/cc               : 2     Name = Density - Type = Density
 GR       .API                : 3     Name = Gamma Ray - Type = Gamma Ray
 NPHI_LS  .fraction           : 4     Name = NPHI - Type = Porosity
 DT       .us/ft              : 5     Name = P-wave - Type = P-wave
~A (ASCII LOG DATA)
# ...
 6862.9995          2.0527         70.4375          0.2519        107.8750
 6863.5005          2.4102         69.8125          0.1626         93.2500
 6864.0000          2.4961         71.1250          0.1543         83.0625
 6864.5000          2.5039         71.5625          0.1577         80.5625
 6864.9995          2.5020         70.9375          0.1538         80.0000
 6865.5005          2.5059         66.4375          0.1504         79.2500
 6866.0000          2.5098         66.9375          0.1460         80.6875
 6866.5000          2.5117         68.6250          0.1636         80.8750
 6867.0000          2.5078         76.7500          0.1992         82.9375
 6867.4995          2.5137         83.8750          0.2236         84.2500
 6868.0000          2.5176         91.0000          0.2427         86.6250
 6868.5000          2.5332        105.5000          0.2598         88.9375
 6869.0000          2.5430        111.8125          0.3008         91.1875
 6869.4995          2.5605        118.0000          0.3315         92.8750
 6870.0005          2.5664        115.6250          0.3311         93.8125
 6870.5000          2.5742        118.5625          0.3257         94.6875
 6871.0000          2.5820        116.5625          0.3164         93.3750
 6871.4995          2.5879        113.8750          0.3164         91.9375
 6872.0005          2.5977        114.4375          0.3159         91.1250
 6872.5000          2.5996        117.0625          0.3164         92.1875
 6873.0000          2.5938        117.4375          0.3325         92.5625
 6873.5000          2.5762        117.3125          0.3374         94.8750
 6873.9995          2.5645        121.4375          0.3447         96.7500
 6874.5000          2.5664        122.2500          0.3457         97.6875
 6875.0000          2.5781        123.8750          0.3525         99.0000
 6875.5000          2.5859        120.1250          0.3623         99.1250
 6875.9995          2.5938        122.0625          0.3682         99.6875
 6876.5005          2.5996        120.5625          0.3555         98.8125
 6877.0000          2.5879        116.1250          0.3247         95.1875
 6877.5000          2.5391         98.9375          0.2725         92.6250
 6877.9995          2.4609         77.8125          0.2222         89.8750
 6878.5005          2.4082         63.2500          0.1816         88.0625
 6879.0000          2.3750         56.0938          0.1646         89.1875
 6879.5000          2.3809         53.3125          0.1543         88.8125
 6880.0000          2.3984         53.0312          0.1577         88.8750
 6880.4995          2.4453         64.8750          0.1709         87.8125
 6881.0000          2.4844         81.4375          0.1953         88.0000
 6881.5000          2.5117         94.1875          0.2109         87.0000
 6882.0000          2.5254        102.6875          0.2212         86.6250
 6882.4995          2.5293        106.6250          0.2363         86.5000
 6883.0005          2.5293        107.1875          0.2524         86.9375
 6883.5000          2.5234        104.5625          0.2407         86.3750
 6884.0000          2.5254         97.3750          0.2207         86.1875
 6884.4995          2.5488         91.8750          0.1992         84.6875
 6885.0005          2.5410         83.5000          0.1963         82.8125
 6885.5000          2.5391         83.1250          0.1894         81.1875
 6886.0000          2.5137         82.5000          0.1865         80.6250
 6886.5000          2.5176         83.1250          0.1812         80.6250
 6886.9995          2.5195         81.3750          0.1846         80.1875
 6887.5005          2.5254         89.5625          0.1894         81.0625
 6888.0000          2.5215         93.1250          0.2060         82.0000
 6888.5000          2.5020         94.0000          0.2153         82.3750
 6888.9995          2.4688         83.7500          0.2100         84.1875
 6889.5005          2.4258         75.4375          0.1934         85.6875
 6890.0000          2.4023         67.5000          0.1782         87.2500
 6890.5000          2.4219         67.7500          0.1768         88.0000
 6890.9995          2.4512         67.5625          0.1846         87.6250
 6891.4995          2.4707         70.3125          0.1934         86.6250
 6892.0000          2.4590         67.4375          0.1963         85.6250
 6892.5000          2.4395         64.3750          0.1934         84.8125
 6893.0000          2.4355         63.4375          0.1909         85.0625
 6893.4995          2.4258         63.0625          0.1875         84.6250
 6894.0005          2.4160         64.1250          0.1875         84.8750
 6894.5000          2.4121         63.3125          0.1807         85.0000
 6895.0000          2.4238         67.7500          0.1831         84.6250
 6895.4995          2.4141         72.5625          0.1899         85.5000
 6896.0005          2.3809         75.1250          0.2007         86.5625
 6896.5000          2.3457         71.8125          0.1992         87.8750
 6897.0000          2.3438         74.5625          0.1938         89.3125
 6897.5000          2.3691         78.1875          0.1934         88.2500
 6897.9995          2.3945         82.3125          0.1885         86.5625
 6898.5000          2.3926         81.5000          0.1851         86.1875
 6899.0000          2.3164         75.2500          0.1797         88.0000
 6899.5000          2.2246         68.8125          0.1797         94.4375
 6899.9995          2.1484         61.7188          0.1870         99.3125
 6900.5005          2.1387         61.7500          0.1899        102.5625
 6901.0000          2.1621         62.1562          0.2022        103.5625
 6901.5000          2.1836         60.5938          0.2065        103.3750
 6901.9995          2.2012         56.8125          0.2056        102.2500
 6902.5005          2.2285         54.6875          0.2022         99.8125
 6903.0000          2.2871         60.3438          0.1948         96.1250
 6903.5000          2.3301         63.8438          0.1958         92.8125
 6904.0000          2.3555         71.3125          0.1885         89.1250
 6904.4995          2.3535         73.1875          0.1909         88.1250
 6905.0000          2.3535         76.7500          0.1929         88.9375
 6905.5000          2.3398         73.1250          0.1963         88.8750
 6906.0000          2.3203         67.1875          0.1958         91.0625
 6906.4995          2.3262         59.3125          0.1904         91.3750
 6907.0005          2.3477         60.3438          0.1875         89.1875
 6907.5000          2.3965         63.1875          0.1851         88.0000
 6908.0000          2.3945         67.6875          0.1865         87.3750
 6908.4995          2.3242         61.0000          0.1787         89.8750
 6909.0005          2.2266         53.4062          0.1694         94.6250
 6909.5000          2.1582         45.2188          0.1787        101.3750
 6910.0000          2.1367         42.6562          0.1929        104.6250
 6910.5000          2.1660         43.6875          0.1997        105.6250
 6910.9995          2.2168         47.5938          0.1953        102.6250
 6911.5000          2.2734         52.8125          0.1963        100.1875
 6912.0000          2.3086         55.0625          0.2017         98.1875
 6912.5000          2.3027         56.7188          0.1953         97.6875
 6912.9995          2.2637         52.4688          0.1816         97.2500
 6913.5005          2.2363         48.5625          0.1743         98.1875
 6914.0000          2.2148         42.7188          0.1802         98.8750
 6914.5000          2.1875         38.5000          0.1821        100.1250
 6914.9995          2.1523         35.8750          0.1792        104.2500
 6915.5005          2.1465         36.5938          0.1738        101.6250
 6916.0000          2.1621         38.2812          0.1670        102.6250
