~VERSION INFORMATION
 VERS.                          2.0   : CWLS LOG ASCII STANDARD - VERSION 2.0
 WRAP.                          NO    : ONE LINE PER DEPTH STEP
#
~Well Information Section
#MNEM     .UNIT     DATA                DESCRIPTION
#-----    -----     --------            --------------
 STRT     .F        2155.0000           : START DEPTH
 STOP     .F        7672.0000           : END DEPTH
 STEP     .F        0.0000              : INCREMENT DEPTH
 NULL     .         -999.2500           : NULL VALUE
 COMP     .                              :
 WELL     .         WELL-2              : WELL NAME
 EKB      .F        73.0000             : KELLY BUSHING ELEVATION
 EGL      .F        0.0000              : GROUND LEVEL ELEVATION
 EPD      .F        0.0000              : PERMANENT DATUM ELEVATION
 FLD      .                              :
 LOC      . X = 246467.5900 Y = 8349201.3500: WELL LOCATION
 PROV     .                              :
 SRVC     .                              :
 PROV     .                              :
 DATE     .                              :
 API      .                              :
#
~Curve Information Section
#MNEM     .UNIT               Curve #DESCRIPTION
#-----    -----               ----   --------------
 DEPTH    .F                  : 1     Name = Domain Curve - Type = DEPTH
 RHOB     .g/cc               : 2     Name = Density - Type = Density
 GR       .API                : 3     Name = Gamma Ray - Type = Gamma Ray
 NPHI_LS  .fraction           : 4     Name = NPHI - Type = Porosity
 DT       .us/ft              : 5     Name = P-wave - Type = P-wave
~A (ASCII LOG DATA)
# ...
 5793.0000          2.5977         10.7422          0.0317         56.2500
 5793.5000          2.5918         10.3906          0.0303         57.8750
 5794.0000          2.5762         10.4062          0.0264         58.3125
 5794.5000          2.5762         10.0781          0.0283         58.1875
 5795.0000          2.5801         10.7422          0.0293         58.5000
 5795.5000          2.5996         10.3828          0.0269         58.5625
 5796.0000          2.6191         10.3984          0.0225         57.1875
 5796.5000          2.6309         10.4062          0.0205         55.6250
 5797.0000          2.6348         10.7812          0.0220         54.6250
 5797.5000          2.6230         10.1172          0.0229         53.6250
 5798.0000          2.6152          9.7656          0.0244         54.3750
 5798.5000          2.6074         10.1016          0.0264         54.1250
 5799.0000          2.6074         10.7344          0.0278         54.3125
 5799.5000          2.6035         10.6953          0.0308         55.2500
 5800.0000          2.5996         11.3438          0.0327         54.6875
 5800.5000          2.5977         11.3672          0.0337         55.7500
 5801.0000          2.6035         10.7344          0.0337         55.9375
 5801.5000          2.6055          8.4141          0.0356         55.2500
 5802.0000          2.5898          8.0703          0.0415         56.3125
 5802.5000          2.5625          8.7500          0.0532         56.6250
 5803.0000          2.5273         10.4297          0.0689         58.2500
 5803.5000          2.4902          9.3906          0.0889         61.8125
 5804.0000          2.4590         11.0859          0.1016         63.1875
 5804.5000          2.4434         11.4062          0.1089         66.4375
 5805.0000          2.4277         11.7734          0.1123         69.4375
 5805.5000          2.4160         11.0625          0.1211         69.6250
 5806.0000          2.4062         10.7344          0.1265         71.1875
 5806.5000          2.4238         11.7188          0.1152         70.5000
 5807.0000          2.4707         10.7344          0.0859         68.3125
 5807.5000          2.5371         11.0234          0.0483         66.0000
 5808.0000          2.5996         11.6484          0.0205         62.0000
 5808.5000          2.6270         12.9766          0.0137         57.0000
 5809.0000          2.6348         13.0078          0.0122         54.3125
 5809.5000          2.6426         12.6953          0.0117         50.8125
 5810.0000          2.6543         10.3672          0.0107         50.6875
 5810.5000          2.6680         10.0391          0.0093         50.3750
 5811.0000          2.6680          9.7656          0.0093         50.3750
 5811.5000          2.6699         12.4453          0.0103         51.2500
 5812.0000          2.6738         11.7422          0.0098         51.3125
 5812.5000          2.6797         12.0391          0.0093         51.3750
 5813.0000          2.6816         11.3516          0.0078         50.8750
 5813.5000          2.6699         11.0312          0.0054         50.4375
 5814.0000          2.6641         11.6641          0.0063         50.6250
 5814.5000          2.6641         11.6719          0.0059         50.3125
 5815.0000          2.6699         13.3281          0.0068         50.0000
 5815.5000          2.6836         13.3281          0.0059         49.8750
 5816.0000          2.6738         13.9375          0.0068         49.8750
 5816.5000          2.6816         12.9688          0.0093         48.1250
 5817.0000          2.6484         10.9766          0.0098         50.0625
 5817.5000          2.6426         10.0156          0.0112         50.3750
 5818.0000          2.6328         10.6484          0.0127         49.8750
 5818.5000          2.6387         12.3438          0.0171         51.0625
 5819.0000          2.5840         12.6719          0.0313         50.8125
 5819.5000          2.5215         12.3906          0.0635         54.9375
 5820.0000          2.4570         12.7344          0.0996         57.6250
 5820.5000          2.4062         12.3984          0.1353         64.0000
 5821.0000          2.3652         13.3906          0.1582         67.5625
 5821.5000          2.3379         12.0391          0.1743         70.2500
 5822.0000          2.3320         12.7344          0.1748         73.6250
 5822.5000          2.3320         11.3750          0.1758         74.5000
 5823.0000          2.3496         11.3594          0.1660         73.9375
 5823.5000          2.3828         11.3516          0.1392         72.9375
 5824.0000          2.4355         12.7188          0.1025         69.6250
 5824.5000          2.4844         14.0312          0.0698         66.0000
 5825.0000          2.5117         14.0625          0.0562         62.3125
 5825.5000          2.5176         12.4062          0.0547         60.6250
 5826.0000          2.5195         12.0859          0.0586         59.9375
 5826.5000          2.5059         11.3984          0.0762         60.3750
 5827.0000          2.4727         12.3828          0.1001         62.6250
 5827.5000          2.4277         12.7344          0.1230         65.1875
 5828.0000          2.4004         12.7266          0.1216         66.3750
 5828.5000          2.4082         12.3594          0.0952         68.6250
 5829.0000          2.4688         11.7109          0.0532         66.6250
 5829.5000          2.5566         12.4219          0.0181         62.8750
 5830.0000          2.6270         11.1250          0.0063         57.6875
 5830.5000          2.6797         10.4219          0.0024         51.3125
 5831.0000          2.6855          9.7266          0.0024         49.6250
 5831.5000          2.7031         12.0469          0.0034         49.5625
 5832.0000          2.6914         13.0625          0.0049         49.6875
 5832.5000          2.6875         12.3750          0.0068         51.1875
 5833.0000          2.6816         12.3438          0.0078         50.5000
 5833.5000          2.6758         11.0000          0.0068         50.8750
 5834.0000          2.6797         13.0234          0.0059         50.8750
 5834.5000          2.6738         12.7188          0.0068         51.3125
 5835.0000          2.6582         13.7578          0.0103         50.5625
 5835.5000          2.6387         12.4219          0.0132         51.4375
 5836.0000          2.6445         11.7656          0.0142         51.7500
 5836.5000          2.6523         11.4062          0.0132         51.8125
 5837.0000          2.6660         11.7344          0.0122         52.0000
 5837.5000          2.6680         12.3984          0.0122         51.6250
 5838.0000          2.6719         12.7422          0.0107         51.5625
 5838.5000          2.6797         13.4531          0.0122         51.5000
 5839.0000          2.6855         15.8672          0.0147         51.6875
 5839.5000          2.6953         17.8750          0.0205         52.3125
 5840.0000          2.6953         20.5469          0.0210         52.9375
 5840.5000          2.6934         20.4844          0.0185         53.2500
 5841.0000          2.6973         20.7969          0.0166         52.6875
 5841.5000          2.6875         19.4375          0.0185         52.3125
 5842.0000          2.6758         19.3906          0.0220         52.3750
 5842.5000          2.6699         18.3750          0.0234         52.0000
 5843.0000          2.6758         17.0312          0.0234         52.3750
 5843.5000          2.6797         15.0625          0.0220         52.7500
 5844.0000          2.6758         15.7969          0.0225         52.7500
 5844.5000          2.6680         14.4766          0.0210         52.6875
 5845.0000          2.6719         13.8203          0.0195         52.9375
 5845.5000          2.6680         12.4141          0.0185         53.1875
 5846.0000          2.6602         12.0625          0.0190         52.7500
