~VERSION INFORMATION
 VERS.                          2.0   : CWLS LOG ASCII STANDARD - VERSION 2.0
 WRAP.                          NO    : ONE LINE PER DEPTH STEP
#
~Well Information Section
#MNEM     .UNIT     DATA                DESCRIPTION
#-----    -----     --------            --------------
 STRT     .F        2155.0000           : START DEPTH
 STOP     .F        7672.0000           : END DEPTH
 STEP     .F        0.0000              : INCREMENT DEPTH
 NULL     .         -999.2500           : NULL VALUE
 COMP     .                              :
 WELL     .         WELL-2              : WELL NAME
 EKB      .F        73.0000             : KELLY BUSHING ELEVATION
 EGL      .F        0.0000              : GROUND LEVEL ELEVATION
 EPD      .F        0.0000              : PERMANENT DATUM ELEVATION
 FLD      .                              :
 LOC      . X = 246467.5900 Y = 8349201.3500: WELL LOCATION
 PROV     .                              :
 SRVC     .                              :
 PROV     .                              :
 DATE     .                              :
 API      .                              :
#
~Curve Information Section
#MNEM     .UNIT               Curve #DESCRIPTION
#-----    -----               ----   --------------
 DEPTH    .F                  : 1     Name = Domain Curve - Type = DEPTH
 RHOB     .g/cc               : 2     Name = Density - Type = Density
 GR       .API                : 3     Name = Gamma Ray - Type = Gamma Ray
 NPHI_LS  .fraction           : 4     Name = NPHI - Type = Porosity
 DT       .us/ft              : 5     Name = P-wave - Type = P-wave
~A (ASCII LOG DATA)
# ...
 3973.9998          2.1543         52.2500          0.3101        108.5000
 3974.5000          2.1543         55.7500          0.3037        109.0625
 3975.0000          2.1621         53.8750          0.3057        107.8750
 3975.5000          2.1738         51.3438          0.2896        107.6875
 3976.0000          2.1875         50.6875          0.2910        107.3750
 3976.5002          2.1875         50.7500          0.2925        107.9375
 3977.0000          2.1914         50.3125          0.2983        108.6250
 3977.5002          2.1875         50.5000          0.3120        109.5000
 3978.0000          2.1855         49.2500          0.3091        109.6250
 3978.4998          2.1836         48.7188          0.3144        110.0625
 3979.0000          2.1816         45.9688          0.3125        109.5000
 3979.4998          2.1777         46.9062          0.3218        109.3125
 3980.0000          2.1660         47.2500          0.3198        109.5000
 3980.4998          2.1660         48.5938          0.3291        109.7500
 3981.0000          2.1641         48.0625          0.3135        109.9375
 3981.5000          2.1699         48.6875          0.3047        110.1875
 3982.0000          2.1738         47.0000          0.2959        110.0625
 3982.5000          2.1738         46.9062          0.2915        110.1250
 3983.0002          2.1797         45.3125          0.2959        109.6875
 3983.5000          2.1855         46.5000          0.2827        109.5625
 3984.0002          2.1914         46.1875          0.2930        109.0625
 3984.5000          2.1816         48.7500          0.2998        110.3125
 3984.9998          2.1680         48.7188          0.3159        109.1250
 3985.5000          2.1602         50.4688          0.3164        106.0000
 3985.9998          2.1953         47.6875          0.2900         99.7500
 3986.5000          2.2637         48.4375          0.2441         96.0625
 3986.9998          2.3086         50.9688          0.2271         97.7500
 3987.5000          2.2949         56.7812          0.2617        105.1875
 3988.0000          2.2734         62.0000          0.3433        115.7500
 3988.5000          2.2715         65.2500          0.3789        120.3125
 3989.0000          2.2520         68.9375          0.4023        126.4375
 3989.5002          2.2324         70.2500          0.4038        125.1875
 3990.0000          2.2422         71.6875          0.4131        126.1875
 3990.5002          2.2422         71.9375          0.4077        124.3125
 3991.0000          2.2422         72.4375          0.4063        125.2500
 3991.4998          2.2441         71.5000          0.4048        124.5000
 3992.0000          2.2441         70.0000          0.4243        125.6250
 3992.4998          2.2461         71.0625          0.4185        126.1250
 3993.0000          2.2480         70.2500          0.4248        126.1250
 3993.4998          2.2520         70.3750          0.4272        125.7500
 3994.0000          2.2520         67.4375          0.4263        125.5000
 3994.5000          2.2539         68.8750          0.4189        125.8750
 3995.0000          2.2656         70.0625          0.4063        125.5000
 3995.5000          2.2773         71.0000          0.4106        126.1250
 3996.0002          2.2812         71.8750          0.4351        125.6250
 3996.5000          2.2871         70.0000          0.4180        125.5000
 3997.0002          2.2773         69.3750          0.4219        125.7500
 3997.5000          2.2852         65.8750          0.3926        125.6250
 3997.9998          2.2773         64.8125          0.4048        126.0000
 3998.5000          2.2734         64.0000          0.3926        125.8750
 3998.9998          2.2676         65.3125          0.4106        125.6250
 3999.5000          2.2676         67.8750          0.4263        125.0000
 3999.9998          2.2734         69.0625          0.4326        125.6250
 4000.5000          2.2793         67.1250          0.4063        125.5000
 4001.0000          2.2891         66.8125          0.3975        126.0000
 4001.5000          2.2891         66.3750          0.4014        125.6250
 4002.0000          2.2988         69.1875          0.3989        125.8750
 4002.5002          2.2930         71.5625          0.3994        125.2500
 4003.0000          2.3027         72.1875          0.3867        125.1250
 4003.5002          2.2910         71.3750          0.4014        125.2500
 4004.0000          2.2812         69.4375          0.4102        124.7500
 4004.4998          2.2773         68.8125          0.4126        124.6250
 4005.0000          2.2793         67.5000          0.4067        121.0000
 4005.4998          2.3086         65.4375          0.3613        121.1250
 4006.0000          2.3105         64.5000          0.3501        119.1250
 4006.4998          2.3066         64.3750          0.3789        120.2500
 4007.0000          2.2715         60.8750          0.4189        124.3750
 4007.5000          2.2500         60.8750          0.4316        127.1250
 4008.0000          2.2285         60.5938          0.4229        130.1250
 4008.5000          2.2246         62.9688          0.4131        130.5000
 4009.0002          2.2246         62.9062          0.4102        131.1250
 4009.5000          2.2324         66.0625          0.3926        130.7500
 4009.9998          2.2363         66.6250          0.3872        129.6250
 4010.5000          2.2402         66.6250          0.4116        130.0000
 4010.9998          2.2402         66.2500          0.4390        130.1250
 4011.5000          2.2422         66.8750          0.4556        130.2500
 4011.9998          2.2402         67.8750          0.4307        130.3750
 4012.5000          2.2539         66.9375          0.4146        130.6250
 4013.0000          2.2793         68.2500          0.4019        128.8750
 4013.5000          2.3008         67.0000          0.3940        127.3750
 4014.0000          2.3066         64.8125          0.3896        124.2500
 4014.5002          2.2969         64.5625          0.3828        125.0000
 4015.0000          2.2812         62.6875          0.3887        125.6250
 4015.5002          2.2734         62.6562          0.3999        126.7500
 4016.0000          2.2695         61.4688          0.4189        130.0000
 4016.4998          2.2637         63.9375          0.4243        125.3750
 4017.0000          2.2773         64.2500          0.3994        124.1250
 4017.4998          2.2988         65.7500          0.3779        121.8750
 4018.0000          2.3125         66.1875          0.3760        122.2500
 4018.4998          2.2930         65.6250          0.3970        125.8750
 4019.0000          2.2793         64.6875          0.4219        127.6250
 4019.5000          2.2754         62.2812          0.4399        125.3750
 4020.0000          2.2910         64.1875          0.4170        122.6250
 4020.5000          2.3047         63.8750          0.3921        122.8750
 4021.0002          2.2930         66.3750          0.3765        124.5000
 4021.5000          2.2754         66.6875          0.3901        127.5000
 4022.0002          2.2578         71.0000          0.4053        131.1250
 4022.5000          2.2578         69.0625          0.4102        129.3750
 4022.9998          2.2656         67.8750          0.4331        129.2500
 4023.5000          2.2598         62.3438          0.4302        130.1250
 4023.9998          2.2578         63.4375          0.4116        131.6250
 4024.5000          2.2520         63.7812          0.3975        131.8750
 4024.9998          2.2539         64.0625          0.3965        133.6250
 4025.5000          2.2578         61.4062          0.3989        132.0000
 4026.0000          2.2656         57.5938          0.3809        126.6250
 4026.5000          2.2832         54.2500          0.3481        122.7500
 4027.0000          2.2852         53.3750          0.3335        120.3750
