~VERSION INFORMATION
 VERS.                          2.0   : CWLS LOG ASCII STANDARD - VERSION 2.0
 WRAP.                          NO    : ONE LINE PER DEPTH STEP
#
~Well Information Section
#MNEM     .UNIT     DATA                DESCRIPTION
#-----    -----     --------            --------------
 STRT     .F        2155.0000           : START DEPTH
 STOP     .F        7672.0000           : END DEPTH
 STEP     .F        0.0000              : INCREMENT DEPTH
 NULL     .         -999.2500           : NULL VALUE
 COMP     .                              :
 WELL     .         WELL-2              : WELL NAME
 EKB      .F        73.0000             : KELLY BUSHING ELEVATION
 EGL      .F        0.0000              : GROUND LEVEL ELEVATION
 EPD      .F        0.0000              : PERMANENT DATUM ELEVATION
 FLD      .                              :
 LOC      . X = 246467.5900 Y = 8349201.3500: WELL LOCATION
 PROV     .                              :
 SRVC     .                              :
 PROV     .                              :
 DATE     .                              :
 API      .                              :
#
~Curve Information Section
#MNEM     .UNIT               Curve #DESCRIPTION
#-----    -----               ----   --------------
 DEPTH    .F                  : 1     Name = Domain Curve - Type = DEPTH
 RHOB     .g/cc               : 2     Name = Density - Type = Density
 GR       .API                : 3     Name = Gamma Ray - Type = Gamma Ray
 NPHI_LS  .fraction           : 4     Name = NPHI - Type = Porosity
 DT       .us/ft              : 5     Name = P-wave - Type = P-wave
~A (ASCII LOG DATA)
# ...
 6542.0000          2.5039         94.1875          0.3462        102.9375
 6542.5000          2.5000         96.3750          0.3467        102.0625
 6543.0000          2.4961         98.3750          0.3525        102.7500
 6543.5000          2.4785         99.6250          0.3755        103.3125
 6544.0000          2.4512         97.7500          0.3901        103.1250
 6544.5000          2.4668        101.8750          0.3960        103.3125
 6545.0000          2.4648         98.9375          0.3799        104.1875
 6545.5000          2.4863        103.0625          0.3809        103.8750
 6546.0000          2.4590         96.5625          0.3662        103.5000
 6546.5000          2.4570         96.8125          0.3691        105.6250
 6547.0000          2.4531         95.3750          0.3604        104.8125
 6547.5000          2.4473         98.3750          0.3569        105.0625
 6548.0000          2.4316        101.1250          0.3584        105.1875
 6548.5000          2.3594         97.8125          0.3774        108.2500
 6549.0000          2.3672         91.0000          0.3936        104.2500
 6549.5000          2.3848         82.6875          0.3794        106.8750
 6550.0000          2.4141         84.2500          0.3579        107.8125
 6550.5000          2.4121         92.3750          0.3560        103.2500
 6551.0000          2.3887         95.6250          0.3760        109.3750
 6551.5000          2.4082         94.5000          0.3643        104.8750
 6552.0000          2.3223         92.1875          0.3579        107.0625
 6552.5000          2.2988         93.1875          0.3843        108.6250
 6553.0000          2.2832         92.1875          0.3931        104.3125
 6553.5000          2.3262         86.7500          0.3989        110.3125
 6554.0000          2.2676         82.2500          0.4009        108.8125
 6554.5000          2.1113         83.0625          0.4351        108.3125
 6555.0000          2.0566         82.6250          0.4521        108.6250
 6555.5000          2.0879         83.1875          0.4439        108.6250
 6556.0000          2.1992         79.0000          0.4351        108.2500
 6556.5000          2.1836         82.1875          0.4448        104.7500
 6557.0000          2.1621         85.8125          0.4331        108.5000
 6557.5000          2.1250         84.6250          0.4199        111.1875
 6558.0000          2.0566         84.4375          0.4229        109.3750
 6558.5000          1.9463         81.2500          0.4175        115.6875
 6559.0000          1.8516         82.0000          0.4268        116.4375
 6559.5000          1.8066         77.8125          0.4282        111.6875
 6560.0000          1.8184         77.0625          0.4575        110.2500
 6560.5000          1.8838         79.0625          0.4331        119.5000
 6561.0000          1.9863         82.2500          0.4097        116.2500
 6561.5000          2.1172         87.9375          0.3794        113.5000
 6562.0000          2.1992         88.7500          0.4131        109.5000
 6562.5000          2.1777         88.6250          0.4414        101.0000
 6563.0000          2.0098         85.9375          0.4629        105.0000
 6563.5000          1.9453         86.4375          0.4639        106.3750
 6564.0000          1.9541         85.6875          0.4419        108.0625
 6564.5000          2.1152         84.0625          0.4390        105.8750
 6565.0000          2.1699         79.3125          0.4346        112.4375
 6565.5000          2.0449         80.0000          0.4370        111.3750
 6566.0000          1.9697         80.6875          0.4126        108.3750
 6566.5000          2.0039         86.2500          0.3940        107.6875
 6567.0000          2.1719         89.8750          0.3555        100.3750
 6567.5000          2.2734         92.6875          0.3228        100.7500
 6568.0000          2.3457         92.9375          0.2993        101.7500
 6568.5000          2.4473         94.6250          0.3223         92.6250
 6569.0000          2.5664         95.0000          0.3262         95.1250
 6569.5000          2.5820        103.1250          0.3262         94.3125
 6570.0000          2.5625        107.9375          0.3091         95.7500
 6570.5000          2.5352        113.3750          0.3101         96.8125
 6571.0000          2.5254        111.7500          0.3130         97.0000
 6571.5000          2.5195        110.0000          0.3247         97.3750
 6572.0000          2.5137        104.4375          0.3228         97.7500
 6572.5000          2.5078        103.6875          0.3228         98.2500
 6573.0000          2.5098        105.2500          0.3208         98.3750
 6573.5000          2.5098        109.8750          0.3247         98.8750
 6574.0000          2.5000        112.5625          0.3408         99.5625
 6574.5000          2.5000        108.6875          0.3345         99.8750
 6575.0000          2.5039        107.6875          0.3315        101.0000
 6575.5000          2.5098        108.2500          0.3228        100.6250
 6576.0000          2.5098        107.6250          0.3311        101.3125
 6576.5000          2.5059        108.3750          0.3311        101.0625
 6577.0000          2.5020        105.8125          0.3247        100.8750
 6577.5000          2.4941        107.9375          0.3247        101.2500
 6578.0000          2.4805        108.5000          0.3296        101.5000
 6578.5000          2.4551        106.1875          0.3232        102.1250
 6579.0000          2.3711        105.6250          0.3369        104.6250
 6579.5000          2.3164        101.4375          0.3413        101.2500
 6580.0000          2.3457        101.3125          0.3545        103.4375
 6580.5000          2.4414        100.0625          0.3389        102.5625
 6581.0000          2.4863        101.5625          0.3550        102.7500
 6581.5000          2.5039        102.5625          0.3550        104.4375
 6582.0000          2.4355        100.7500          0.3467        102.1250
 6582.5000          2.4609         96.1250          0.3447        102.9375
 6583.0000          2.4199         91.9375          0.3423        101.9375
 6583.5000          2.3516         87.8750          0.3682        110.3750
 6584.0000          2.1172         88.9375          0.3535         79.7500
 6584.5000          1.8555         82.5625          0.3691         80.7500
 6585.0000          1.7178         80.0000          0.4028         93.1250
 6585.5000          1.5918         74.2500          0.4546        101.3125
 6586.0000          1.6211         77.3125          0.4478        106.6875
 6586.5000          1.6934         81.2500          0.4346        128.1250
 6587.0000          1.8916         87.2500          0.4443        111.8750
 6587.5000          2.0371         82.5000          0.4356         91.4375
 6588.0000          2.1289         68.0000          0.3359         93.9375
 6588.5000          2.2930         48.0625          0.1982         82.6875
 6589.0000          2.3926         36.7188          0.1045         67.0625
 6589.5000          2.4043         29.8438          0.0845         65.8750
 6590.0000          2.3477         25.9062          0.0762         52.2500
 6590.5000          2.4219         22.9062          0.0654         55.2500
 6591.0000          2.4277         22.5469          0.0498         55.2500
 6591.5000          2.6035         27.7188          0.0479         60.6875
 6592.0000          2.6035         33.2812          0.0615         62.0625
 6592.5000          2.6328         39.5312          0.0747         63.3125
 6593.0000          2.6348         39.2500          0.0723         64.6875
 6593.5000          2.6406         36.0938          0.0547         64.3125
 6594.0000          2.6523         32.8438          0.0435         63.0000
 6594.5000          2.6641         31.1406          0.0562         62.0625
 6595.0000          2.3594         37.2188          0.1650         71.6875
